@CanonGPS/ver1.0/wgs-84/Canon EOS 6D/242020004950/fe98
$GPGGA,112928.220,3946.1529,N,10454.3320,W,1,04,2.2,1235.0,M,,,,0000*2C
$GPRMC,112928.220,A,3946.1529,N,10454.3320,W,,,241015,,,A*7F
$GPGGA,113229.330,3945.7516,N,10454.2489,W,1,04,2.2,1665.0,M,,,,0000*2A
$GPRMC,113229.330,A,3945.7516,N,10454.2489,W,,,241015,,,A*78
$GPGGA,113429.339,3946.0708,N,10454.1891,W,1,04,2.2,1546.0,M,,,,0000*28
$GPRMC,113429.339,A,3946.0708,N,10454.1891,W,,,241015,,,A*78
$GPGGA,113627.351,3946.6629,N,10453.3206,W,1,04,2.3,1540.0,M,,,,0000*28
$GPRMC,113627.351,A,3946.6629,N,10453.3206,W,,,241015,,,A*7F
$GPGGA,113827.357,3946.4827,N,10451.2043,W,1,04,2.3,1523.0,M,,,,0000*27
$GPRMC,113827.357,A,3946.4827,N,10451.2043,W,,,241015,,,A*75
$GPGGA,114026.368,3946.2888,N,10448.9595,W,1,04,2.3,1539.0,M,,,,0000*20
$GPRMC,114026.368,A,3946.2888,N,10448.9595,W,,,241015,,,A*79
$GPGGA,114229.377,3946.6576,N,10447.5007,W,1,04,2.3,1494.0,M,,,,0000*20
$GPRMC,114229.377,A,3946.6576,N,10447.5007,W,,,241015,,,A*7F
$GPGGA,114428.386,3948.2377,N,10447.2257,W,1,04,2.4,1538.0,M,,,,0000*24
$GPRMC,114428.386,A,3948.2377,N,10447.2257,W,,,241015,,,A*7B
$GPGGA,114627.401,3949.8052,N,10446.8323,W,1,04,2.4,1566.0,M,,,,0000*2C
$GPRMC,114627.401,A,3949.8052,N,10446.8323,W,,,241015,,,A*78
$GPGGA,114829.410,3950.0338,N,10444.5419,W,1,04,2.5,1585.0,M,,,,0000*2E
$GPRMC,114829.410,A,3950.0338,N,10444.5419,W,,,241015,,,A*76
$GPGGA,115027.419,3950.0169,N,10442.2592,W,1,04,2.5,1622.0,M,,,,0000*2B
$GPRMC,115027.419,A,3950.0169,N,10442.2592,W,,,241015,,,A*7D
$GPGGA,115228.429,3950.2233,N,10440.3297,W,1,04,2.5,1610.0,M,,,,0000*2B
$GPRMC,115228.429,A,3950.2233,N,10440.3297,W,,,241015,,,A*7C
$GPGGA,115811.455,3950.9128,N,10440.3155,W,1,04,2.7,1782.0,M,,,,0000*27
$GPRMC,115811.455,A,3950.9128,N,10440.3155,W,,,241015,,,A*78
$GPGGA,121540.480,3950.9501,N,10440.4930,W,1,04,3.1,1585.0,M,,,,0000*20
$GPRMC,121540.480,A,3950.9501,N,10440.4930,W,,,241015,,,A*7D
$GPGGA,121744.505,3950.9454,N,10440.4534,W,1,04,3.2,1670.0,M,,,,0000*29
$GPRMC,121744.505,A,3950.9454,N,10440.4534,W,,,241015,,,A*7E
$GPGGA,121942.522,3950.9477,N,10440.4769,W,1,04,3.2,1650.0,M,,,,0000*2D
$GPRMC,121942.522,A,3950.9477,N,10440.4769,W,,,241015,,,A*78
$GPGGA,122145.527,3950.9481,N,10440.4555,W,1,04,3.3,1725.0,M,,,,0000*22
$GPRMC,122145.527,A,3950.9481,N,10440.4555,W,,,241015,,,A*75
$GPGGA,122404.540,3950.9453,N,10440.4866,W,1,04,3.3,1744.0,M,,,,0000*26
$GPRMC,122404.540,A,3950.9453,N,10440.4866,W,,,241015,,,A*76
$GPGGA,122710.000,3950.9054,N,10440.4447,W,1,05,5.4,1618.0,M,,,,0000*25
$GPRMC,122710.000,A,3950.9054,N,10440.4447,W,,,241015,,,A*7D
$GPGGA,122942.000,3950.9109,N,10440.3451,W,1,05,5.5,1839.0,M,,,,0000*29
$GPRMC,122942.000,A,3950.9109,N,10440.3451,W,,,241015,,,A*7D
$GPGGA,123141.062,3950.8931,N,10440.2246,W,1,05,5.6,2064.0,M,,,,0000*24
$GPRMC,123141.062,A,3950.8931,N,10440.2246,W,,,241015,,,A*70
$GPGGA,123342.000,3950.9080,N,10440.4057,W,1,05,5.7,1755.0,M,,,,0000*20
$GPRMC,123342.000,A,3950.9080,N,10440.4057,W,,,241015,,,A*73
$GPGGA,123542.000,3950.9098,N,10440.4649,W,1,05,5.8,1659.0,M,,,,0000*24
$GPRMC,123542.000,A,3950.9098,N,10440.4649,W,,,241015,,,A*75
$GPGGA,123743.000,3950.9047,N,10440.3037,W,1,05,5.9,1920.0,M,,,,0000*2D
$GPRMC,123743.000,A,3950.9047,N,10440.3037,W,,,241015,,,A*7C
$GPGGA,124008.595,3950.9910,N,10440.6513,W,1,04,3.3,1303.0,M,,,,0000*20
$GPRMC,124008.595,A,3950.9910,N,10440.6513,W,,,241015,,,A*77
$GPGGA,133230.858,3951.5132,N,10440.6580,W,1,04,1.3,1610.0,M,,,,0000*29
$GPRMC,133230.858,A,3951.5132,N,10440.6580,W,,,241015,,,A*7B
$GPGGA,183321.285,4307.2593,N,08921.2107,W,1,04,2.7,257.0,M,,,,0000*12
$GPRMC,183321.285,A,4307.2593,N,08921.2107,W,,,241015,,,A*71
$GPGGA,183617.000,4307.2589,N,08921.2137,W,1,04,2.8,262.0,M,,,,0000*1C
$GPRMC,183617.000,A,4307.2589,N,08921.2137,W,,,241015,,,A*76
$GPGGA,183817.312,4307.2592,N,08921.2138,W,1,04,2.9,257.0,M,,,,0000*10
$GPRMC,183817.312,A,4307.2592,N,08921.2138,W,,,241015,,,A*7D
$GPGGA,184017.321,4307.2585,N,08921.2119,W,1,04,3.0,258.0,M,,,,0000*1D
$GPRMC,184017.321,A,4307.2585,N,08921.2119,W,,,241015,,,A*77
$GPGGA,184240.332,4307.2555,N,08921.2049,W,1,04,3.4,260.0,M,,,,0000*19
$GPRMC,184240.332,A,4307.2555,N,08921.2049,W,,,241015,,,A*7C
$GPGGA,184617.359,4307.2578,N,08921.1997,W,1,04,3.5,250.0,M,,,,0000*16
$GPRMC,184617.359,A,4307.2578,N,08921.1997,W,,,241015,,,A*71
$GPGGA,184813.368,4307.2659,N,08921.2062,W,1,04,3.6,237.0,M,,,,0000*1C
$GPRMC,184813.368,A,4307.2659,N,08921.2062,W,,,241015,,,A*79
$GPGGA,185017.375,4307.2697,N,08921.2038,W,1,04,3.8,228.0,M,,,,0000*10
$GPRMC,185017.375,A,4307.2697,N,08921.2038,W,,,241015,,,A*75
$GPGGA,185217.385,4307.2702,N,08921.2060,W,1,04,3.9,229.0,M,,,,0000*1D
$GPRMC,185217.385,A,4307.2702,N,08921.2060,W,,,241015,,,A*78
$GPGGA,185417.398,4307.2481,N,08921.2027,W,1,04,4.2,275.0,M,,,,0000*19
$GPRMC,185417.398,A,4307.2481,N,08921.2027,W,,,241015,,,A*79
$GPGGA,185617.406,4307.2542,N,08921.2024,W,1,04,4.4,246.0,M,,,,0000*10
$GPRMC,185617.406,A,4307.2542,N,08921.2024,W,,,241015,,,A*76
$GPGGA,185815.416,4307.2651,N,08921.2117,W,1,04,4.7,262.0,M,,,,0000*18
$GPRMC,185815.416,A,4307.2651,N,08921.2117,W,,,241015,,,A*7B
$GPGGA,190017.434,4307.2591,N,08921.2081,W,1,04,5.1,277.0,M,,,,0000*14
$GPRMC,190017.434,A,4307.2591,N,08921.2081,W,,,241015,,,A*74
$GPGGA,190218.442,4307.2706,N,08921.2175,W,1,04,5.5,254.0,M,,,,0000*1B
$GPRMC,190218.442,A,4307.2706,N,08921.2175,W,,,241015,,,A*7E
$GPGGA,190515.000,4307.2643,N,08921.2135,W,1,08,1.2,271.0,M,,,,0000*1F
$GPRMC,190515.000,A,4307.2643,N,08921.2135,W,,,241015,,,A*72
$GPGGA,190714.000,4307.2632,N,08921.2137,W,1,08,1.1,272.0,M,,,,0000*18
$GPRMC,190714.000,A,4307.2632,N,08921.2137,W,,,241015,,,A*75
$GPGGA,190916.000,4307.2621,N,08921.2104,W,1,08,1.1,265.0,M,,,,0000*10
$GPRMC,190916.000,A,4307.2621,N,08921.2104,W,,,241015,,,A*7B
$GPGGA,191115.000,4307.2607,N,08921.2105,W,1,08,1.1,270.0,M,,,,0000*1B
$GPRMC,191115.000,A,4307.2607,N,08921.2105,W,,,241015,,,A*74
$GPGGA,191315.000,4307.2585,N,08921.2101,W,1,08,1.1,254.0,M,,,,0000*12
$GPRMC,191315.000,A,4307.2585,N,08921.2101,W,,,241015,,,A*7B
$GPGGA,191518.000,4307.3654,N,08921.1620,W,1,09,1.1,270.0,M,,,,0000*17
$GPRMC,191518.000,A,4307.3654,N,08921.1620,W,,,241015,,,A*79
$GPGGA,191715.000,4307.2616,N,08921.3106,W,1,07,1.2,256.0,M,,,,0000*17
$GPRMC,191715.000,A,4307.2616,N,08921.3106,W,,,241015,,,A*70
$GPGGA,191916.000,4306.0893,N,08921.5531,W,1,07,1.2,244.0,M,,,,0000*1F
$GPRMC,191916.000,A,4306.0893,N,08921.5531,W,,,241015,,,A*7B
$GPGGA,192115.000,4305.3545,N,08922.1944,W,1,08,1.2,263.0,M,,,,0000*12
$GPRMC,192115.000,A,4305.3545,N,08922.1944,W,,,241015,,,A*7C
$GPGGA,192315.000,4304.7829,N,08923.0496,W,1,07,1.2,269.0,M,,,,0000*15
$GPRMC,192315.000,A,4304.7829,N,08923.0496,W,,,241015,,,A*7E
$GPGGA,192516.000,4304.5410,N,08923.2165,W,1,07,1.2,351.0,M,,,,0000*15
$GPRMC,192516.000,A,4304.5410,N,08923.2165,W,,,241015,,,A*74
$GPGGA,192831.000,4304.4978,N,08923.2479,W,1,05,3.5,345.0,M,,,,0000*15
$GPRMC,192831.000,A,4304.4978,N,08923.2479,W,,,241015,,,A*76
$GPGGA,193219.604,4304.5352,N,08923.2126,W,1,03,4.7,405.0,M,,,,0000*1A
$GPRMC,193219.604,A,4304.5352,N,08923.2126,W,,,241015,,,A*79
$GPGGA,193421.000,4304.5279,N,08923.1945,W,1,05,1.6,423.0,M,,,,0000*15
$GPRMC,193421.000,A,4304.5279,N,08923.1945,W,,,241015,,,A*70
$GPGGA,193629.658,4304.5375,N,08923.1955,W,1,03,5.0,455.0,M,,,,0000*1D
$GPRMC,193629.658,A,4304.5375,N,08923.1955,W,,,241015,,,A*7D
$GPGGA,193819.042,4304.5339,N,08923.1943,W,1,04,2.8,299.0,M,,,,0000*1C
$GPRMC,193819.042,A,4304.5339,N,08923.1943,W,,,241015,,,A*72
$GPGGA,194056.707,4304.5293,N,08923.1824,W,1,03,5.4,293.0,M,,,,0000*19
$GPRMC,194056.707,A,4304.5293,N,08923.1824,W,,,241015,,,A*71
$GPGGA,194445.696,4304.5004,N,08923.1915,W,1,03,3.3,293.0,M,,,,0000*18
$GPRMC,194445.696,A,4304.5004,N,08923.1915,W,,,241015,,,A*71
$GPGGA,194640.743,4304.5183,N,08923.1770,W,1,04,2.0,212.0,M,,,,0000*19
$GPRMC,194640.743,A,4304.5183,N,08923.1770,W,,,241015,,,A*7C
$GPGGA,194858.719,4304.4985,N,08923.0584,W,1,03,6.4,159.0,M,,,,0000*1D
$GPRMC,194858.719,A,4304.4985,N,08923.0584,W,,,241015,,,A*73
$GPGGA,195106.757,4304.5544,N,08923.2227,W,1,03,6.8,228.0,M,,,,0000*11
$GPRMC,195106.757,A,4304.5544,N,08923.2227,W,,,241015,,,A*76
$GPGGA,195303.403,4304.5122,N,08923.1316,W,1,03,7.2,202.0,M,,,,0000*13
$GPRMC,195303.403,A,4304.5122,N,08923.1316,W,,,241015,,,A*77
$GPGGA,195507.765,4304.5341,N,08923.1968,W,1,03,7.6,174.0,M,,,,0000*10
$GPRMC,195507.765,A,4304.5341,N,08923.1968,W,,,241015,,,A*72
$GPGGA,195901.793,4304.5282,N,08923.1658,W,1,04,3.3,289.0,M,,,,0000*16
$GPRMC,195901.793,A,4304.5282,N,08923.1658,W,,,241015,,,A*73
$GPGGA,200348.000,4304.5257,N,08923.1623,W,1,04,3.3,325.0,M,,,,0000*10
$GPRMC,200348.000,A,4304.5257,N,08923.1623,W,,,241015,,,A*72
$GPGGA,200856.699,4304.5305,N,08923.1651,W,1,04,13.3,304.0,M,,,,0000*23
$GPRMC,200856.699,A,4304.5305,N,08923.1651,W,,,241015,,,A*73
$GPGGA,201356.722,4304.5285,N,08923.1594,W,1,04,5.3,312.0,M,,,,0000*1B
$GPRMC,201356.722,A,4304.5285,N,08923.1594,W,,,241015,,,A*7B
$GPGGA,201557.334,4304.5379,N,08923.1914,W,1,04,5.8,267.0,M,,,,0000*11
$GPRMC,201557.334,A,4304.5379,N,08923.1914,W,,,241015,,,A*79
$GPGGA,202340.000,4304.5203,N,08923.1547,W,1,05,1.8,309.0,M,,,,0000*1C
$GPRMC,202340.000,A,4304.5203,N,08923.1547,W,,,241015,,,A*78
$GPGGA,202849.791,4304.5738,N,08923.2284,W,1,04,7.9,281.0,M,,,,0000*10
$GPRMC,202849.791,A,4304.5738,N,08923.2284,W,,,241015,,,A*73
