@CanonGPS/ver1.0/wgs-84/Canon EOS 6D/242020004950/fe98
$GPGGA,011210.027,3945.9613,N,10455.3966,W,1,04,4.8,36.0,M,,,,0000*2F
$GPRMC,011210.027,A,3945.9613,N,10455.3966,W,,,201015,,,A*74
$GPGGA,011601.000,3946.4279,N,10454.1003,W,1,05,2.3,1640.0,M,,,,0000*2B
$GPRMC,011601.000,A,3946.4279,N,10454.1003,W,,,201015,,,A*7A
$GPGGA,011755.000,3946.4315,N,10454.0792,W,1,05,2.1,1654.0,M,,,,0000*29
$GPRMC,011755.000,A,3946.4315,N,10454.0792,W,,,201015,,,A*7F
$GPGGA,012052.147,3946.0206,N,10455.3289,W,1,04,4.8,289.0,M,,,,0000*19
$GPRMC,012052.147,A,3946.0206,N,10455.3289,W,,,201015,,,A*74
$GPGGA,012353.000,3946.4238,N,10454.0890,W,1,06,2.0,1650.0,M,,,,0000*2D
$GPRMC,012353.000,A,3946.4238,N,10454.0890,W,,,201015,,,A*7D
$GPGGA,012552.000,3946.4269,N,10454.0832,W,1,05,2.1,1604.0,M,,,,0000*25
$GPRMC,012552.000,A,3946.4269,N,10454.0832,W,,,201015,,,A*76
$GPGGA,012753.000,3946.4168,N,10454.0919,W,1,05,1.9,1628.0,M,,,,0000*29
$GPRMC,012753.000,A,3946.4168,N,10454.0919,W,,,201015,,,A*7F
$GPGGA,012952.192,3946.4205,N,10454.0874,W,1,04,2.3,1636.0,M,,,,0000*29
$GPRMC,012952.192,A,3946.4205,N,10454.0874,W,,,201015,,,A*78
$GPGGA,013220.203,3946.4209,N,10454.0882,W,1,06,1.3,1653.0,M,,,,0000*2A
$GPRMC,013220.203,A,3946.4209,N,10454.0882,W,,,201015,,,A*79
$GPGGA,013548.217,3946.3949,N,10454.1895,W,1,05,7.4,1545.0,M,,,,0000*2F
$GPRMC,013548.217,A,3946.3949,N,10454.1895,W,,,201015,,,A*7A
$GPGGA,013752.225,3946.3995,N,10454.1971,W,1,04,7.1,1547.0,M,,,,0000*2B
$GPRMC,013752.225,A,3946.3995,N,10454.1971,W,,,201015,,,A*78
$GPGGA,014005.237,3946.4390,N,10454.0876,W,1,04,2.4,1646.0,M,,,,0000*27
$GPRMC,014005.237,A,3946.4390,N,10454.0876,W,,,201015,,,A*76
$GPGGA,014155.000,3946.4253,N,10454.0896,W,1,05,1.9,1630.0,M,,,,0000*2B
$GPRMC,014155.000,A,3946.4253,N,10454.0896,W,,,201015,,,A*74
$GPGGA,014451.000,3946.4230,N,10454.0868,W,1,05,2.1,1644.0,M,,,,0000*26
$GPRMC,014451.000,A,3946.4230,N,10454.0868,W,,,201015,,,A*71
$GPGGA,014654.256,3946.4415,N,10454.0910,W,1,04,5.4,1643.0,M,,,,0000*2B
$GPRMC,014654.256,A,3946.4415,N,10454.0910,W,,,201015,,,A*78
$GPGGA,014853.261,3946.4268,N,10454.1474,W,1,04,5.4,1600.0,M,,,,0000*23
$GPRMC,014853.261,A,3946.4268,N,10454.1474,W,,,201015,,,A*77
$GPGGA,015051.000,3946.4279,N,10454.0969,W,1,06,1.7,1627.0,M,,,,0000*2D
$GPRMC,015051.000,A,3946.4279,N,10454.0969,W,,,201015,,,A*79
$GPGGA,015249.000,3946.4305,N,10454.1032,W,1,06,1.7,1653.0,M,,,,0000*29
$GPRMC,015249.000,A,3946.4305,N,10454.1032,W,,,201015,,,A*7E
$GPGGA,015451.292,3946.4291,N,10454.1021,W,1,04,5.2,1645.0,M,,,,0000*25
$GPRMC,015451.292,A,3946.4291,N,10454.1021,W,,,201015,,,A*76
$GPGGA,015657.000,3946.4308,N,10454.0850,W,1,05,1.7,1644.0,M,,,,0000*27
$GPRMC,015657.000,A,3946.4308,N,10454.0850,W,,,201015,,,A*75
$GPGGA,015855.309,3946.4423,N,10454.0926,W,1,04,3.5,1691.0,M,,,,0000*26
$GPRMC,015855.309,A,3946.4423,N,10454.0926,W,,,201015,,,A*7D
$GPGGA,020055.000,3946.4228,N,10454.0961,W,1,06,1.7,1634.0,M,,,,0000*21
$GPRMC,020055.000,A,3946.4228,N,10454.0961,W,,,201015,,,A*77
$GPGGA,020254.344,3946.4217,N,10454.1106,W,1,04,3.3,1605.0,M,,,,0000*23
$GPRMC,020254.344,A,3946.4217,N,10454.1106,W,,,201015,,,A*73
$GPGGA,020457.356,3946.4503,N,10454.1047,W,1,04,3.4,1695.0,M,,,,0000*2D
$GPRMC,020457.356,A,3946.4503,N,10454.1047,W,,,201015,,,A*73
$GPGGA,020709.360,3946.4420,N,10454.0890,W,1,03,2.7,1681.0,M,,,,0000*23
$GPRMC,020709.360,A,3946.4420,N,10454.0890,W,,,201015,,,A*7D
$GPGGA,021530.433,3946.4585,N,10454.0524,W,1,03,5.1,1707.0,M,,,,0000*29
$GPRMC,021530.433,A,3946.4585,N,10454.0524,W,,,201015,,,A*79
$GPGGA,022045.456,3946.4463,N,10454.1091,W,1,04,3.0,1708.0,M,,,,0000*22
$GPRMC,022045.456,A,3946.4463,N,10454.1091,W,,,201015,,,A*7D
$GPGGA,022256.469,3946.4407,N,10454.0608,W,1,03,3.5,1709.0,M,,,,0000*28
$GPRMC,022256.469,A,3946.4407,N,10454.0608,W,,,201015,,,A*74
$GPGGA,023456.550,3946.4557,N,10454.0586,W,1,03,3.7,1709.0,M,,,,0000*27
$GPRMC,023456.550,A,3946.4557,N,10454.0586,W,,,201015,,,A*79
$GPGGA,023851.568,3946.4594,N,10454.0916,W,1,04,2.9,1732.0,M,,,,0000*2D
$GPRMC,023851.568,A,3946.4594,N,10454.0916,W,,,201015,,,A*73
$GPGGA,024611.603,3946.4523,N,10454.1030,W,1,03,3.8,1709.0,M,,,,0000*21
$GPRMC,024611.603,A,3946.4523,N,10454.1030,W,,,201015,,,A*70
$GPGGA,025608.677,3946.4299,N,10454.1027,W,1,03,1.7,1709.0,M,,,,0000*26
$GPRMC,025608.677,A,3946.4299,N,10454.1027,W,,,201015,,,A*7A
$GPGGA,035803.121,3946.4386,N,10454.1048,W,1,04,3.2,1650.0,M,,,,0000*2D
$GPRMC,035803.121,A,3946.4386,N,10454.1048,W,,,201015,,,A*7C
