@CanonGPS/ver1.0/wgs-84/Canon EOS 6D/242020004950/fe98
$GPGGA,141241.117,4020.4450,N,10534.2582,W,1,04,4.4,2302.0,M,,,,0000*23
$GPRMC,141241.117,A,4020.4450,N,10534.2582,W,,,181015,,,A*79
$GPGGA,141818.303,4020.4511,N,10534.4917,W,1,04,5.2,2311.0,M,,,,0000*25
$GPRMC,141818.303,A,4020.4511,N,10534.4917,W,,,181015,,,A*7A
$GPGGA,142019.994,4020.4532,N,10534.5015,W,1,04,5.5,2287.0,M,,,,0000*29
$GPRMC,142019.994,A,4020.4532,N,10534.5015,W,,,181015,,,A*7F
$GPGGA,142219.321,4020.4547,N,10534.5130,W,1,04,6.0,2387.0,M,,,,0000*2C
$GPRMC,142219.321,A,4020.4547,N,10534.5130,W,,,181015,,,A*7D
$GPGGA,142421.330,4020.4691,N,10534.5297,W,1,04,6.5,2395.0,M,,,,0000*21
$GPRMC,142421.330,A,4020.4691,N,10534.5297,W,,,181015,,,A*76
$GPGGA,142621.337,4020.4863,N,10534.6015,W,1,04,7.1,2408.0,M,,,,0000*2A
$GPRMC,142621.337,A,4020.4863,N,10534.6015,W,,,181015,,,A*7B
$GPGGA,142811.290,4020.5046,N,10534.6460,W,1,04,7.7,2391.0,M,,,,0000*22
$GPRMC,142811.290,A,4020.5046,N,10534.6460,W,,,181015,,,A*72
$GPGGA,143001.294,4020.5015,N,10534.6962,W,1,04,8.6,2400.0,M,,,,0000*26
$GPRMC,143001.294,A,4020.5015,N,10534.6962,W,,,181015,,,A*77
$GPGGA,143151.922,4020.4794,N,10534.6819,W,1,04,9.6,2401.0,M,,,,0000*26
$GPRMC,143151.922,A,4020.4794,N,10534.6819,W,,,181015,,,A*77
$GPGGA,143353.936,4020.4800,N,10534.7539,W,1,04,11.0,2405.0,M,,,,0000*14
$GPRMC,143353.936,A,4020.4800,N,10534.7539,W,,,181015,,,A*7E
$GPGGA,143543.936,4020.4755,N,10534.7583,W,1,04,12.7,2404.0,M,,,,0000*18
$GPRMC,143543.936,A,4020.4755,N,10534.7583,W,,,181015,,,A*77
$GPGGA,143733.006,4020.4487,N,10534.7653,W,1,04,14.8,2406.0,M,,,,0000*1E
$GPRMC,143733.006,A,4020.4487,N,10534.7653,W,,,181015,,,A*7A
$GPGGA,144104.000,4020.4474,N,10534.8078,W,1,05,1.7,2407.0,M,,,,0000*2A
$GPRMC,144104.000,A,4020.4474,N,10534.8078,W,,,181015,,,A*75
$GPGGA,144309.000,4020.4739,N,10534.8282,W,1,05,1.7,2407.0,M,,,,0000*28
$GPRMC,144309.000,A,4020.4739,N,10534.8282,W,,,181015,,,A*77
$GPGGA,144505.000,4020.4905,N,10534.8506,W,1,05,1.8,2412.0,M,,,,0000*23
$GPRMC,144505.000,A,4020.4905,N,10534.8506,W,,,181015,,,A*77
$GPGGA,144708.000,4020.4740,N,10534.8529,W,1,04,19.3,2415.0,M,,,,0000*1A
$GPRMC,144708.000,A,4020.4740,N,10534.8529,W,,,181015,,,A*7A
$GPGGA,144906.000,4020.4346,N,10534.8141,W,1,05,1.9,2407.0,M,,,,0000*23
$GPRMC,144906.000,A,4020.4346,N,10534.8141,W,,,181015,,,A*72
$GPGGA,145108.000,4020.4099,N,10534.7897,W,1,05,1.9,2425.0,M,,,,0000*28
$GPRMC,145108.000,A,4020.4099,N,10534.7897,W,,,181015,,,A*79
$GPGGA,145307.000,4020.4131,N,10534.7319,W,1,05,2.0,2421.0,M,,,,0000*25
$GPRMC,145307.000,A,4020.4131,N,10534.7319,W,,,181015,,,A*7A
$GPGGA,145507.000,4020.4060,N,10534.7348,W,1,05,2.1,2431.0,M,,,,0000*22
$GPRMC,145507.000,A,4020.4060,N,10534.7348,W,,,181015,,,A*7D
$GPGGA,145706.000,4020.3778,N,10534.6866,W,1,05,2.1,2420.0,M,,,,0000*2E
$GPRMC,145706.000,A,4020.3778,N,10534.6866,W,,,181015,,,A*71
$GPGGA,145905.000,4020.3822,N,10534.6568,W,1,05,2.2,2431.0,M,,,,0000*23
$GPRMC,145905.000,A,4020.3822,N,10534.6568,W,,,181015,,,A*7F
$GPGGA,150107.000,4020.3567,N,10534.6670,W,1,05,2.3,2444.0,M,,,,0000*28
$GPRMC,150107.000,A,4020.3567,N,10534.6670,W,,,181015,,,A*77
$GPGGA,150306.000,4020.3445,N,10534.6829,W,1,05,2.4,2445.0,M,,,,0000*2E
$GPRMC,150306.000,A,4020.3445,N,10534.6829,W,,,181015,,,A*77
$GPGGA,150508.000,4020.3624,N,10534.6347,W,1,05,2.5,2429.0,M,,,,0000*2B
$GPRMC,150508.000,A,4020.3624,N,10534.6347,W,,,181015,,,A*79
$GPGGA,150707.000,4020.3786,N,10534.6332,W,1,05,2.5,2452.0,M,,,,0000*21
$GPRMC,150707.000,A,4020.3786,N,10534.6332,W,,,181015,,,A*7F
$GPGGA,150908.000,4020.3250,N,10534.6315,W,1,05,2.6,2451.0,M,,,,0000*2B
$GPRMC,150908.000,A,4020.3250,N,10534.6315,W,,,181015,,,A*75
$GPGGA,151204.000,4020.2933,N,10534.6103,W,1,05,2.7,2459.0,M,,,,0000*2E
$GPRMC,151204.000,A,4020.2933,N,10534.6103,W,,,181015,,,A*79
$GPGGA,151405.000,4020.2690,N,10534.5669,W,1,05,2.8,2468.0,M,,,,0000*2A
$GPRMC,151405.000,A,4020.2690,N,10534.5669,W,,,181015,,,A*70
$GPGGA,151605.016,4020.2564,N,10534.5427,W,1,05,2.8,2486.0,M,,,,0000*2F
$GPRMC,151605.016,A,4020.2564,N,10534.5427,W,,,181015,,,A*75
$GPGGA,151807.000,4020.2539,N,10534.5341,W,1,05,2.9,2498.0,M,,,,0000*25
$GPRMC,151807.000,A,4020.2539,N,10534.5341,W,,,181015,,,A*71
$GPGGA,152006.000,4020.2566,N,10534.5588,W,1,05,2.9,2486.0,M,,,,0000*29
$GPRMC,152006.000,A,4020.2566,N,10534.5588,W,,,181015,,,A*72
$GPGGA,152208.000,4020.2514,N,10534.5836,W,1,05,2.9,2506.0,M,,,,0000*21
$GPRMC,152208.000,A,4020.2514,N,10534.5836,W,,,181015,,,A*73
$GPGGA,152403.066,4020.2310,N,10534.6065,W,1,05,2.9,2507.0,M,,,,0000*22
$GPRMC,152403.066,A,4020.2310,N,10534.6065,W,,,181015,,,A*71
$GPGGA,152608.559,4020.1736,N,10534.5557,W,1,04,4.6,2525.0,M,,,,0000*2E
$GPRMC,152608.559,A,4020.1736,N,10534.5557,W,,,181015,,,A*75
$GPGGA,152811.571,4020.1613,N,10534.5154,W,1,04,4.8,2540.0,M,,,,0000*2E
$GPRMC,152811.571,A,4020.1613,N,10534.5154,W,,,181015,,,A*78
$GPGGA,153007.599,4020.1783,N,10534.4840,W,1,04,4.9,2524.0,M,,,,0000*20
$GPRMC,153007.599,A,4020.1783,N,10534.4840,W,,,181015,,,A*75
$GPGGA,153206.623,4020.1836,N,10534.4137,W,1,04,5.1,2522.0,M,,,,0000*26
$GPRMC,153206.623,A,4020.1836,N,10534.4137,W,,,181015,,,A*7C
$GPGGA,153422.639,4020.1728,N,10534.3670,W,1,04,5.2,2515.0,M,,,,0000*29
$GPRMC,153422.639,A,4020.1728,N,10534.3670,W,,,181015,,,A*74
$GPGGA,153806.632,4020.1821,N,10534.2687,W,1,03,7.3,2519.0,M,,,,0000*2F
$GPRMC,153806.632,A,4020.1821,N,10534.2687,W,,,181015,,,A*7A
$GPGGA,154012.642,4020.2081,N,10534.2398,W,1,04,5.5,2508.0,M,,,,0000*2B
$GPRMC,154012.642,A,4020.2081,N,10534.2398,W,,,181015,,,A*7D
$GPGGA,154310.649,4020.2447,N,10534.1981,W,1,04,5.5,2511.0,M,,,,0000*26
$GPRMC,154310.649,A,4020.2447,N,10534.1981,W,,,181015,,,A*78
$GPGGA,154507.702,4020.2683,N,10534.1695,W,1,04,5.6,2515.0,M,,,,0000*2F
$GPRMC,154507.702,A,4020.2683,N,10534.1695,W,,,181015,,,A*76
$GPGGA,154711.711,4020.2979,N,10534.1706,W,1,04,5.6,2512.0,M,,,,0000*2E
$GPRMC,154711.711,A,4020.2979,N,10534.1706,W,,,181015,,,A*70
$GPGGA,154909.695,4020.2823,N,10534.1247,W,1,04,5.6,2506.0,M,,,,0000*2F
$GPRMC,154909.695,A,4020.2823,N,10534.1247,W,,,181015,,,A*74
$GPGGA,155059.000,4020.3122,N,10534.0918,W,1,05,1.9,2496.0,M,,,,0000*23
$GPRMC,155059.000,A,4020.3122,N,10534.0918,W,,,181015,,,A*7A
$GPGGA,155335.000,4020.3259,N,10534.1049,W,1,05,1.9,2516.0,M,,,,0000*20
$GPRMC,155335.000,A,4020.3259,N,10534.1049,W,,,181015,,,A*70
$GPGGA,155536.000,4020.3630,N,10534.0564,W,1,05,1.8,2498.0,M,,,,0000*23
$GPRMC,155536.000,A,4020.3630,N,10534.0564,W,,,181015,,,A*75
$GPGGA,155734.000,4020.3731,N,10534.0215,W,1,05,1.8,2491.0,M,,,,0000*2B
$GPRMC,155734.000,A,4020.3731,N,10534.0215,W,,,181015,,,A*74
$GPGGA,155933.000,4020.4105,N,10533.9973,W,1,05,1.8,2487.0,M,,,,0000*26
$GPRMC,155933.000,A,4020.4105,N,10533.9973,W,,,181015,,,A*7E
$GPGGA,160321.000,4020.3999,N,10533.9968,W,1,04,2.2,2482.0,M,,,,0000*24
$GPRMC,160321.000,A,4020.3999,N,10533.9968,W,,,181015,,,A*71
$GPGGA,160519.098,4020.3939,N,10534.0478,W,1,05,1.8,2490.0,M,,,,0000*2B
$GPRMC,160519.098,A,4020.3939,N,10534.0478,W,,,181015,,,A*75
$GPGGA,160740.701,4020.3692,N,10534.1063,W,1,04,3.2,2499.0,M,,,,0000*23
$GPRMC,160740.701,A,4020.3692,N,10534.1063,W,,,181015,,,A*7D
$GPGGA,162001.636,4020.3799,N,10534.1168,W,1,03,3.2,2489.0,M,,,,0000*20
$GPRMC,162001.636,A,4020.3799,N,10534.1168,W,,,181015,,,A*78
$GPGGA,162222.643,4020.3769,N,10534.1084,W,1,04,3.1,2484.0,M,,,,0000*24
$GPRMC,162222.643,A,4020.3769,N,10534.1084,W,,,181015,,,A*75
$GPGGA,163955.831,4020.4129,N,10534.1248,W,1,04,1.6,2389.0,M,,,,0000*2D
$GPRMC,163955.831,A,4020.4129,N,10534.1248,W,,,181015,,,A*73
$GPGGA,164244.000,4020.4547,N,10534.0923,W,1,04,1.5,2348.0,M,,,,0000*2E
$GPRMC,164244.000,A,4020.4547,N,10534.0923,W,,,181015,,,A*7E
$GPGGA,164514.000,4020.4315,N,10534.1141,W,1,06,1.3,2400.0,M,,,,0000*2F
$GPRMC,164514.000,A,4020.4315,N,10534.1141,W,,,181015,,,A*70
$GPGGA,164705.058,4020.4229,N,10534.1246,W,1,04,4.4,2413.0,M,,,,0000*28
$GPRMC,164705.058,A,4020.4229,N,10534.1246,W,,,181015,,,A*75
$GPGGA,164937.000,4020.4272,N,10534.1297,W,1,05,1.4,2420.0,M,,,,0000*2C
$GPRMC,164937.000,A,4020.4272,N,10534.1297,W,,,181015,,,A*75
$GPGGA,165133.000,4020.4254,N,10534.1277,W,1,06,1.3,2429.0,M,,,,0000*26
$GPRMC,165133.000,A,4020.4254,N,10534.1277,W,,,181015,,,A*72
$GPGGA,165329.000,4020.4240,N,10534.1289,W,1,05,1.4,2411.0,M,,,,0000*24
$GPRMC,165329.000,A,4020.4240,N,10534.1289,W,,,181015,,,A*7F
$GPGGA,165531.845,4020.4179,N,10534.1221,W,1,04,2.8,2429.0,M,,,,0000*2C
$GPRMC,165531.845,A,4020.4179,N,10534.1221,W,,,181015,,,A*72
$GPGGA,165753.061,4020.4185,N,10534.1249,W,1,05,1.4,2413.0,M,,,,0000*2E
$GPRMC,165753.061,A,4020.4185,N,10534.1249,W,,,181015,,,A*77
$GPGGA,170352.077,4020.4180,N,10534.1285,W,1,04,1.5,2393.0,M,,,,0000*22
$GPRMC,170352.077,A,4020.4180,N,10534.1285,W,,,181015,,,A*74
$GPGGA,170811.000,4020.4178,N,10534.1297,W,1,05,1.4,2419.0,M,,,,0000*2F
$GPRMC,170811.000,A,4020.4178,N,10534.1297,W,,,181015,,,A*7C
$GPGGA,171013.000,4020.4138,N,10534.1268,W,1,05,1.5,2408.0,M,,,,0000*21
$GPRMC,171013.000,A,4020.4138,N,10534.1268,W,,,181015,,,A*73
$GPGGA,171218.000,4020.4177,N,10534.1307,W,1,05,1.5,2403.0,M,,,,0000*20
$GPRMC,171218.000,A,4020.4177,N,10534.1307,W,,,181015,,,A*79
$GPGGA,171419.934,4020.4108,N,10534.1269,W,1,04,2.2,2375.0,M,,,,0000*2B
$GPRMC,171419.934,A,4020.4108,N,10534.1269,W,,,181015,,,A*71
$GPGGA,171613.936,4020.4142,N,10534.1293,W,1,05,1.5,2377.0,M,,,,0000*2D
$GPRMC,171613.936,A,4020.4142,N,10534.1293,W,,,181015,,,A*70
$GPGGA,171814.942,4020.4135,N,10534.1175,W,1,04,2.1,2342.0,M,,,,0000*2C
$GPRMC,171814.942,A,4020.4135,N,10534.1175,W,,,181015,,,A*71
$GPGGA,172020.962,4020.3946,N,10534.1375,W,1,04,3.3,2298.0,M,,,,0000*2E
$GPRMC,172020.962,A,4020.3946,N,10534.1375,W,,,181015,,,A*76
$GPGGA,172224.965,4020.3819,N,10534.1335,W,1,04,4.0,2268.0,M,,,,0000*2B
$GPRMC,172224.965,A,4020.3819,N,10534.1335,W,,,181015,,,A*78
$GPGGA,172426.063,4020.3850,N,10534.1355,W,1,04,1.9,2270.0,M,,,,0000*2E
$GPRMC,172426.063,A,4020.3850,N,10534.1355,W,,,181015,,,A*78
$GPGGA,172626.000,4020.4144,N,10534.1335,W,1,05,1.5,2384.0,M,,,,0000*23
$GPRMC,172626.000,A,4020.4144,N,10534.1335,W,,,181015,,,A*72
$GPGGA,173013.000,4020.4207,N,10534.2175,W,1,06,1.6,2418.0,M,,,,0000*21
$GPRMC,173013.000,A,4020.4207,N,10534.2175,W,,,181015,,,A*72
$GPGGA,173213.000,4020.4405,N,10534.3379,W,1,06,1.6,2422.0,M,,,,0000*21
$GPRMC,173213.000,A,4020.4405,N,10534.3379,W,,,181015,,,A*7B
$GPGGA,182444.379,4020.4308,N,10534.4137,W,1,04,1.6,2526.0,M,,,,0000*24
$GPRMC,182444.379,A,4020.4308,N,10534.4137,W,,,181015,,,A*79
$GPGGA,182648.401,4020.4335,N,10534.3032,W,1,04,1.6,2542.0,M,,,,0000*2D
$GPRMC,182648.401,A,4020.4335,N,10534.3032,W,,,181015,,,A*72
$GPGGA,182847.393,4020.4336,N,10534.1972,W,1,04,1.6,2531.0,M,,,,0000*28
$GPRMC,182847.393,A,4020.4336,N,10534.1972,W,,,181015,,,A*73
$GPGGA,183045.420,4020.4342,N,10534.1654,W,1,04,1.6,2535.0,M,,,,0000*20
$GPRMC,183045.420,A,4020.4342,N,10534.1654,W,,,181015,,,A*7F
$GPGGA,200544.786,3949.6961,N,10458.4493,W,1,03,3.6,2534.0,M,,,,0000*28
$GPRMC,200544.786,A,3949.6961,N,10458.4493,W,,,181015,,,A*73
$GPGGA,201418.829,3946.0782,N,10454.1933,W,1,04,1.8,1695.0,M,,,,0000*2F
$GPRMC,201418.829,A,3946.0782,N,10454.1933,W,,,181015,,,A*74
$GPGGA,201701.742,3946.4766,N,10454.1596,W,1,03,2.8,1718.0,M,,,,0000*2B
$GPRMC,201701.742,A,3946.4766,N,10454.1596,W,,,181015,,,A*70
$GPGGA,201947.838,3946.4497,N,10454.1481,W,1,03,2.7,1684.0,M,,,,0000*24
$GPRMC,201947.838,A,3946.4497,N,10454.1481,W,,,181015,,,A*74
$GPGGA,202210.843,3946.4661,N,10454.1194,W,1,03,2.7,1684.0,M,,,,0000*28
$GPRMC,202210.843,A,3946.4661,N,10454.1194,W,,,181015,,,A*78
$GPGGA,205420.975,3946.4140,N,10454.1053,W,1,03,2.2,1684.0,M,,,,0000*25
$GPRMC,205420.975,A,3946.4140,N,10454.1053,W,,,181015,,,A*70
$GPGGA,010611.165,3946.6739,N,10454.2030,W,1,04,6.8,1894.0,M,,,,0000*20
$GPRMC,010611.165,A,3946.6739,N,10454.2030,W,,,191015,,,A*72
$GPGGA,011444.198,3946.9470,N,10457.9007,W,1,04,5.7,1736.0,M,,,,0000*27
$GPRMC,011444.198,A,3946.9470,N,10457.9007,W,,,191015,,,A*7E
$GPGGA,011935.221,3945.7029,N,10459.3679,W,1,04,5.6,1909.0,M,,,,0000*20
$GPRMC,011935.221,A,3945.7029,N,10459.3679,W,,,191015,,,A*7A
$GPGGA,012219.000,3945.5651,N,10459.3062,W,1,05,2.9,1742.0,M,,,,0000*28
$GPRMC,012219.000,A,3945.5651,N,10459.3062,W,,,191015,,,A*7A
$GPGGA,012525.101,3945.6299,N,10459.4398,W,1,04,5.2,1845.0,M,,,,0000*27
$GPRMC,012525.101,A,3945.6299,N,10459.4398,W,,,191015,,,A*70
$GPGGA,012749.255,3945.2943,N,10459.4897,W,1,04,3.3,1615.0,M,,,,0000*2D
$GPRMC,012749.255,A,3945.2943,N,10459.4897,W,,,191015,,,A*76
$GPGGA,021033.000,3945.4604,N,10459.5637,W,1,05,3.0,1767.0,M,,,,0000*2C
$GPRMC,021033.000,A,3945.4604,N,10459.5637,W,,,191015,,,A*71
$GPGGA,021235.896,3945.5234,N,10459.4235,W,1,04,3.3,1726.0,M,,,,0000*29
$GPRMC,021235.896,A,3945.5234,N,10459.4235,W,,,191015,,,A*73
$GPGGA,021435.000,3945.5698,N,10459.3484,W,1,05,2.9,1664.0,M,,,,0000*2C
$GPRMC,021435.000,A,3945.5698,N,10459.3484,W,,,191015,,,A*7B
$GPGGA,021738.516,3945.7775,N,10459.1374,W,1,05,2.7,1842.0,M,,,,0000*2E
$GPRMC,021738.516,A,3945.7775,N,10459.1374,W,,,191015,,,A*7D
$GPGGA,022110.520,3946.4228,N,10457.8295,W,1,05,2.6,1539.0,M,,,,0000*20
$GPRMC,022110.520,A,3946.4228,N,10457.8295,W,,,191015,,,A*73
$GPGGA,022324.387,3946.5283,N,10456.7247,W,1,04,7.5,1366.0,M,,,,0000*24
$GPRMC,022324.387,A,3946.5283,N,10456.7247,W,,,191015,,,A*7C
$GPGGA,022558.499,3946.6907,N,10455.1979,W,1,04,4.4,1531.0,M,,,,0000*20
$GPRMC,022558.499,A,3946.6907,N,10455.1979,W,,,191015,,,A*7E
$GPGGA,022945.657,3946.4244,N,10454.0368,W,1,04,7.3,1470.0,M,,,,0000*24
$GPRMC,022945.657,A,3946.4244,N,10454.0368,W,,,191015,,,A*7A
$GPGGA,023159.000,3946.4645,N,10454.1523,W,1,05,2.3,1645.0,M,,,,0000*29
$GPRMC,023159.000,A,3946.4645,N,10454.1523,W,,,191015,,,A*77
$GPGGA,024710.649,3946.3978,N,10454.0817,W,1,03,3.0,1465.0,M,,,,0000*27
$GPRMC,024710.649,A,3946.3978,N,10454.0817,W,,,191015,,,A*7D
$GPGGA,025037.632,3946.3649,N,10454.0749,W,1,03,3.0,1465.0,M,,,,0000*21
$GPRMC,025037.632,A,3946.3649,N,10454.0749,W,,,191015,,,A*7B
$GPGGA,025605.795,3946.3590,N,10454.0695,W,1,03,3.1,1465.0,M,,,,0000*2C
$GPRMC,025605.795,A,3946.3590,N,10454.0695,W,,,191015,,,A*77
$GPGGA,034620.115,3946.5745,N,10454.2290,W,1,03,3.3,1465.0,M,,,,0000*28
$GPRMC,034620.115,A,3946.5745,N,10454.2290,W,,,191015,,,A*71
