@CanonGPS/ver1.0/wgs-84/Canon EOS 6D/242020004950/fe98
$GPGGA,102439.720,3946.4426,N,10454.0981,W,1,04,3.7,1616.0,M,,,,0000*2D
$GPRMC,102439.720,A,3946.4426,N,10454.0981,W,,,201015,,,A*7B
$GPGGA,103700.829,3946.4463,N,10454.0778,W,1,04,5.8,1540.0,M,,,,0000*23
$GPRMC,103700.829,A,3946.4463,N,10454.0778,W,,,201015,,,A*7C
$GPGGA,104228.847,3946.4992,N,10454.1019,W,1,04,4.2,1573.0,M,,,,0000*2A
$GPRMC,104228.847,A,3946.4992,N,10454.1019,W,,,201015,,,A*7E
$GPGGA,104601.904,3946.4715,N,10454.1066,W,1,05,3.4,1572.0,M,,,,0000*2B
$GPRMC,104601.904,A,3946.4715,N,10454.1066,W,,,201015,,,A*7E
$GPGGA,104808.877,3946.4955,N,10454.0911,W,1,04,3.8,1654.0,M,,,,0000*21
$GPRMC,104808.877,A,3946.4955,N,10454.0911,W,,,201015,,,A*7E
$GPGGA,105336.910,3946.4265,N,10454.0724,W,1,04,3.9,1658.0,M,,,,0000*2B
$GPRMC,105336.910,A,3946.4265,N,10454.0724,W,,,201015,,,A*79
$GPGGA,105544.885,3946.4450,N,10454.0306,W,1,04,3.9,1732.0,M,,,,0000*2C
$GPRMC,105544.885,A,3946.4450,N,10454.0306,W,,,201015,,,A*73
$GPGGA,105741.000,3946.4762,N,10454.0229,W,1,05,3.3,1742.0,M,,,,0000*2C
$GPRMC,105741.000,A,3946.4762,N,10454.0229,W,,,201015,,,A*7F
$GPGGA,105945.000,3946.4723,N,10453.9867,W,1,05,3.3,1779.0,M,,,,0000*25
$GPRMC,105945.000,A,3946.4723,N,10453.9867,W,,,201015,,,A*7E
$GPGGA,110201.980,3946.4518,N,10453.8938,W,1,04,6.8,1802.0,M,,,,0000*27
$GPRMC,110201.980,A,3946.4518,N,10453.8938,W,,,201015,,,A*70
$GPGGA,110402.948,3946.4260,N,10454.0177,W,1,04,4.0,1778.0,M,,,,0000*2A
$GPRMC,110402.948,A,3946.4260,N,10454.0177,W,,,201015,,,A*75
$GPGGA,110919.011,3946.4544,N,10453.9179,W,1,04,7.2,1840.0,M,,,,0000*2C
$GPRMC,110919.011,A,3946.4544,N,10453.9179,W,,,201015,,,A*76
$GPGGA,111225.996,3946.4334,N,10453.8750,W,1,04,7.4,1776.0,M,,,,0000*2E
$GPRMC,111225.996,A,3946.4334,N,10453.8750,W,,,201015,,,A*78
$GPGGA,111426.000,3946.4611,N,10454.0877,W,1,05,1.8,1756.0,M,,,,0000*23
$GPRMC,111426.000,A,3946.4611,N,10454.0877,W,,,201015,,,A*7C
$GPGGA,111818.085,3946.4397,N,10454.0050,W,1,03,4.4,1742.0,M,,,,0000*23
$GPRMC,111818.085,A,3946.4397,N,10454.0050,W,,,201015,,,A*76
$GPGGA,112019.000,3946.4649,N,10454.0582,W,1,05,3.4,1739.0,M,,,,0000*25
$GPRMC,112019.000,A,3946.4649,N,10454.0582,W,,,201015,,,A*7D
$GPGGA,112253.104,3946.4612,N,10453.9754,W,1,04,8.1,1750.0,M,,,,0000*25
$GPRMC,112253.104,A,3946.4612,N,10453.9754,W,,,201015,,,A*7D
$GPGGA,112658.098,3946.4163,N,10454.1380,W,1,04,4.2,1544.0,M,,,,0000*25
$GPRMC,112658.098,A,3946.4163,N,10454.1380,W,,,201015,,,A*75
$GPGGA,112858.072,3946.4532,N,10453.9213,W,1,04,8.6,1757.0,M,,,,0000*23
$GPRMC,112858.072,A,3946.4532,N,10453.9213,W,,,201015,,,A*7B
$GPGGA,113108.139,3946.4424,N,10453.9073,W,1,04,8.8,1751.0,M,,,,0000*2A
$GPRMC,113108.139,A,3946.4424,N,10453.9073,W,,,201015,,,A*7A
$GPGGA,113616.162,3946.4296,N,10454.0760,W,1,05,2.4,1633.0,M,,,,0000*2A
$GPRMC,113616.162,A,3946.4296,N,10454.0760,W,,,201015,,,A*78
$GPGGA,113933.184,3946.4402,N,10454.0201,W,1,04,5.1,1736.0,M,,,,0000*24
$GPRMC,113933.184,A,3946.4402,N,10454.0201,W,,,201015,,,A*71
$GPGGA,114210.000,3946.4653,N,10453.9926,W,1,05,5.0,1747.0,M,,,,0000*24
$GPRMC,114210.000,A,3946.4653,N,10453.9926,W,,,201015,,,A*77
$GPGGA,114541.000,3946.4567,N,10454.0097,W,1,05,5.0,1706.0,M,,,,0000*2B
$GPRMC,114541.000,A,3946.4567,N,10454.0097,W,,,201015,,,A*7D
$GPGGA,114740.176,3946.4522,N,10453.9192,W,1,04,10.8,1661.0,M,,,,0000*1E
$GPRMC,114740.176,A,3946.4522,N,10453.9192,W,,,201015,,,A*75
$GPGGA,115036.184,3946.4310,N,10454.0577,W,1,04,8.2,1672.0,M,,,,0000*23
$GPRMC,115036.184,A,3946.4310,N,10454.0577,W,,,201015,,,A*79
$GPGGA,115604.252,3946.2849,N,10454.3993,W,1,04,9.2,1304.0,M,,,,0000*2D
$GPRMC,115604.252,A,3946.2849,N,10454.3993,W,,,201015,,,A*72
$GPGGA,115814.231,3946.3576,N,10454.0817,W,1,04,4.1,1405.0,M,,,,0000*21
$GPRMC,115814.231,A,3946.3576,N,10454.0817,W,,,201015,,,A*76
$GPGGA,120010.000,3946.4164,N,10454.1253,W,1,05,4.3,1617.0,M,,,,0000*22
$GPRMC,120010.000,A,3946.4164,N,10454.1253,W,,,201015,,,A*77
$GPGGA,120211.067,3946.4067,N,10454.1040,W,1,04,4.3,1629.0,M,,,,0000*2E
$GPRMC,120211.067,A,3946.4067,N,10454.1040,W,,,201015,,,A*77
$GPGGA,120412.077,3946.4277,N,10454.1079,W,1,04,5.1,1610.0,M,,,,0000*2A
$GPRMC,120412.077,A,3946.4277,N,10454.1079,W,,,201015,,,A*7A
$GPGGA,120621.086,3946.4728,N,10454.0277,W,1,04,11.9,1712.0,M,,,,0000*1A
$GPRMC,120621.086,A,3946.4728,N,10454.0277,W,,,201015,,,A*74
$GPGGA,121015.105,3946.4577,N,10454.0350,W,1,04,13.5,1699.0,M,,,,0000*10
$GPRMC,121015.105,A,3946.4577,N,10454.0350,W,,,201015,,,A*72
$GPGGA,121535.128,3946.4024,N,10454.0813,W,1,04,4.9,1550.0,M,,,,0000*2B
$GPRMC,121535.128,A,3946.4024,N,10454.0813,W,,,201015,,,A*75
$GPGGA,121918.000,3946.5980,N,10453.6875,W,1,04,19.6,1783.0,M,,,,0000*1B
$GPRMC,121918.000,A,3946.5980,N,10453.6875,W,,,201015,,,A*7A
$GPGGA,122121.120,3946.4490,N,10454.0723,W,1,03,10.1,1702.0,M,,,,0000*19
$GPRMC,122121.120,A,3946.4490,N,10454.0723,W,,,201015,,,A*78
$GPGGA,122407.067,3946.3947,N,10454.0765,W,1,04,7.5,1497.0,M,,,,0000*22
$GPRMC,122407.067,A,3946.3947,N,10454.0765,W,,,201015,,,A*79
$GPGGA,122733.000,3946.4589,N,10454.1247,W,1,06,2.7,1685.0,M,,,,0000*2E
$GPRMC,122733.000,A,3946.4589,N,10454.1247,W,,,201015,,,A*71
$GPGGA,122937.170,3946.5091,N,10454.1213,W,1,04,5.7,1693.0,M,,,,0000*2C
$GPRMC,122937.170,A,3946.5091,N,10454.1213,W,,,201015,,,A*71
$GPGGA,123658.246,3946.5244,N,10454.1403,W,1,04,13.3,1786.0,M,,,,0000*16
$GPRMC,123658.246,A,3946.5244,N,10454.1403,W,,,201015,,,A*7D
$GPGGA,124209.268,3946.4664,N,10454.0817,W,1,04,13.2,1694.0,M,,,,0000*11
$GPRMC,124209.268,A,3946.4664,N,10454.0817,W,,,201015,,,A*79
$GPGGA,124738.297,3946.6277,N,10453.9032,W,1,04,22.0,1765.0,M,,,,0000*1C
$GPRMC,124738.297,A,3946.6277,N,10453.9032,W,,,201015,,,A*7B
$GPGGA,130302.369,3946.3947,N,10453.9707,W,1,04,9.7,1828.0,M,,,,0000*20
$GPRMC,130302.369,A,3946.3947,N,10453.9707,W,,,201015,,,A*7F
$GPGGA,130740.385,3946.4229,N,10454.0920,W,1,04,8.2,1672.0,M,,,,0000*24
$GPRMC,130740.385,A,3946.4229,N,10454.0920,W,,,201015,,,A*7E
$GPGGA,131244.407,3946.4283,N,10454.0761,W,1,04,7.3,1686.0,M,,,,0000*27
$GPRMC,131244.407,A,3946.4283,N,10454.0761,W,,,201015,,,A*78
$GPGGA,132648.492,3946.4235,N,10454.0673,W,1,03,6.2,1677.0,M,,,,0000*26
$GPRMC,132648.492,A,3946.4235,N,10454.0673,W,,,201015,,,A*70
$GPGGA,133145.475,3946.4239,N,10454.1042,W,1,05,2.1,1623.0,M,,,,0000*2D
$GPRMC,133145.475,A,3946.4239,N,10454.1042,W,,,201015,,,A*7B
$GPGGA,134551.000,3946.4407,N,10454.1604,W,1,07,1.3,1612.0,M,,,,0000*23
$GPRMC,134551.000,A,3946.4407,N,10454.1604,W,,,201015,,,A*74
$GPGGA,134755.000,3946.5091,N,10454.1927,W,1,07,1.0,1554.0,M,,,,0000*23
$GPRMC,134755.000,A,3946.5091,N,10454.1927,W,,,201015,,,A*76
$GPGGA,134956.000,3947.2070,N,10454.0379,W,1,06,1.4,1572.0,M,,,,0000*26
$GPRMC,134956.000,A,3947.2070,N,10454.0379,W,,,201015,,,A*72
$GPGGA,135153.000,3947.8172,N,10454.0811,W,1,07,1.0,1591.0,M,,,,0000*2E
$GPRMC,135153.000,A,3947.8172,N,10454.0811,W,,,201015,,,A*72
$GPGGA,144806.000,3947.8672,N,10453.9896,W,1,06,1.2,1617.0,M,,,,0000*29
$GPRMC,144806.000,A,3947.8672,N,10453.9896,W,,,201015,,,A*7B
$GPGGA,145008.000,3947.8684,N,10454.0100,W,1,05,1.3,1589.0,M,,,,0000*29
$GPRMC,145008.000,A,3947.8684,N,10454.0100,W,,,201015,,,A*7D
$GPGGA,145207.000,3947.8787,N,10454.0052,W,1,06,1.2,1581.0,M,,,,0000*2A
$GPRMC,145207.000,A,3947.8787,N,10454.0052,W,,,201015,,,A*74
$GPGGA,145408.000,3947.8719,N,10454.0156,W,1,06,1.2,1574.0,M,,,,0000*2B
$GPRMC,145408.000,A,3947.8719,N,10454.0156,W,,,201015,,,A*7F
$GPGGA,145606.000,3947.8859,N,10453.9919,W,1,05,1.5,1579.0,M,,,,0000*28
$GPRMC,145606.000,A,3947.8859,N,10453.9919,W,,,201015,,,A*75
$GPGGA,145807.000,3947.8685,N,10454.0225,W,1,05,1.4,1599.0,M,,,,0000*2D
$GPRMC,145807.000,A,3947.8685,N,10454.0225,W,,,201015,,,A*7F
$GPGGA,150007.000,3947.8830,N,10453.9973,W,1,06,1.3,1609.0,M,,,,0000*29
$GPRMC,150007.000,A,3947.8830,N,10453.9973,W,,,201015,,,A*75
$GPGGA,150207.000,3947.8765,N,10453.9995,W,1,06,1.3,1607.0,M,,,,0000*22
$GPRMC,150207.000,A,3947.8765,N,10453.9995,W,,,201015,,,A*70
$GPGGA,150408.087,3947.8982,N,10454.0178,W,1,04,2.2,1689.0,M,,,,0000*20
$GPRMC,150408.087,A,3947.8982,N,10454.0178,W,,,201015,,,A*74
$GPGGA,150607.000,3947.8906,N,10453.9915,W,1,06,1.3,1646.0,M,,,,0000*20
$GPRMC,150607.000,A,3947.8906,N,10453.9915,W,,,201015,,,A*77
$GPGGA,150809.000,3947.8815,N,10454.0057,W,1,06,1.3,1619.0,M,,,,0000*28
$GPRMC,150809.000,A,3947.8815,N,10454.0057,W,,,201015,,,A*75
$GPGGA,151008.000,3947.8860,N,10453.9866,W,1,07,1.1,1642.0,M,,,,0000*2B
$GPRMC,151008.000,A,3947.8860,N,10453.9866,W,,,201015,,,A*7B
$GPGGA,151208.000,3947.8666,N,10454.0188,W,1,06,1.3,1669.0,M,,,,0000*2C
$GPRMC,151208.000,A,3947.8666,N,10454.0188,W,,,201015,,,A*76
$GPGGA,151407.000,3947.8769,N,10454.0000,W,1,07,1.1,1667.0,M,,,,0000*27
$GPRMC,151407.000,A,3947.8769,N,10454.0000,W,,,201015,,,A*70
$GPGGA,151607.000,3947.8686,N,10453.9970,W,1,06,1.2,1661.0,M,,,,0000*21
$GPRMC,151607.000,A,3947.8686,N,10453.9970,W,,,201015,,,A*72
$GPGGA,151808.209,3947.8430,N,10454.0037,W,1,03,4.1,1658.0,M,,,,0000*29
$GPRMC,151808.209,A,3947.8430,N,10454.0037,W,,,201015,,,A*73
$GPGGA,152108.000,3947.8856,N,10453.9696,W,1,06,1.1,1628.0,M,,,,0000*20
$GPRMC,152108.000,A,3947.8856,N,10453.9696,W,,,201015,,,A*7D
$GPGGA,152446.000,3947.8737,N,10453.9784,W,1,07,1.1,1620.0,M,,,,0000*2C
$GPRMC,152446.000,A,3947.8737,N,10453.9784,W,,,201015,,,A*78
$GPGGA,152649.000,3947.8713,N,10453.9589,W,1,07,1.1,1648.0,M,,,,0000*26
$GPRMC,152649.000,A,3947.8713,N,10453.9589,W,,,201015,,,A*7C
$GPGGA,152849.000,3947.8780,N,10453.9770,W,1,06,1.4,1624.0,M,,,,0000*28
$GPRMC,152849.000,A,3947.8780,N,10453.9770,W,,,201015,,,A*7C
$GPGGA,153040.000,3947.8823,N,10453.9737,W,1,07,1.1,1620.0,M,,,,0000*2D
$GPRMC,153040.000,A,3947.8823,N,10453.9737,W,,,201015,,,A*79
$GPGGA,153243.000,3947.8630,N,10453.9506,W,1,07,1.0,1668.0,M,,,,0000*2D
$GPRMC,153243.000,A,3947.8630,N,10453.9506,W,,,201015,,,A*74
$GPGGA,153447.050,3947.8859,N,10453.9763,W,1,04,3.7,1630.0,M,,,,0000*21
$GPRMC,153447.050,A,3947.8859,N,10453.9763,W,,,201015,,,A*73
$GPGGA,153646.000,3947.8812,N,10453.9639,W,1,06,1.2,1647.0,M,,,,0000*23
$GPRMC,153646.000,A,3947.8812,N,10453.9639,W,,,201015,,,A*74
$GPGGA,153847.000,3947.8841,N,10453.9594,W,1,06,1.1,1655.0,M,,,,0000*2E
$GPRMC,153847.000,A,3947.8841,N,10453.9594,W,,,201015,,,A*79
$GPGGA,154045.000,3947.8841,N,10453.9551,W,1,06,1.2,1658.0,M,,,,0000*24
$GPRMC,154045.000,A,3947.8841,N,10453.9551,W,,,201015,,,A*7D
$GPGGA,154243.000,3947.8892,N,10453.9535,W,1,05,1.1,1639.0,M,,,,0000*2B
$GPRMC,154243.000,A,3947.8892,N,10453.9535,W,,,201015,,,A*75
$GPGGA,154445.000,3947.8873,N,10453.9643,W,1,06,1.2,1644.0,M,,,,0000*2C
$GPRMC,154445.000,A,3947.8873,N,10453.9643,W,,,201015,,,A*78
$GPGGA,154645.000,3947.8909,N,10453.9595,W,1,05,1.3,1635.0,M,,,,0000*2E
$GPRMC,154645.000,A,3947.8909,N,10453.9595,W,,,201015,,,A*7E
$GPGGA,154843.000,3947.8826,N,10453.9538,W,1,05,1.3,1632.0,M,,,,0000*2A
$GPRMC,154843.000,A,3947.8826,N,10453.9538,W,,,201015,,,A*7D
$GPGGA,155044.346,3947.9029,N,10453.9849,W,1,04,3.0,1599.0,M,,,,0000*2A
$GPRMC,155044.346,A,3947.9029,N,10453.9849,W,,,201015,,,A*7F
$GPGGA,155245.000,3947.8919,N,10453.9791,W,1,05,1.9,1611.0,M,,,,0000*20
$GPRMC,155245.000,A,3947.8919,N,10453.9791,W,,,201015,,,A*7C
$GPGGA,155444.365,3947.8984,N,10453.9771,W,1,03,3.7,1605.0,M,,,,0000*22
$GPRMC,155444.365,A,3947.8984,N,10453.9771,W,,,201015,,,A*71
$GPGGA,155644.000,3947.8688,N,10453.9411,W,1,06,1.2,1687.0,M,,,,0000*2E
$GPRMC,155644.000,A,3947.8688,N,10453.9411,W,,,201015,,,A*75
$GPGGA,155844.384,3947.8842,N,10453.9355,W,1,03,3.6,1661.0,M,,,,0000*2B
$GPRMC,155844.384,A,3947.8842,N,10453.9355,W,,,201015,,,A*7B
$GPGGA,160045.000,3947.8902,N,10453.9795,W,1,06,1.2,1596.0,M,,,,0000*2E
$GPRMC,160045.000,A,3947.8902,N,10453.9795,W,,,201015,,,A*76
$GPGGA,160344.000,3947.8700,N,10453.9594,W,1,06,1.1,1651.0,M,,,,0000*28
$GPRMC,160344.000,A,3947.8700,N,10453.9594,W,,,201015,,,A*7B
$GPGGA,160544.203,3947.8661,N,10453.9532,W,1,04,1.3,1671.0,M,,,,0000*27
$GPRMC,160544.203,A,3947.8661,N,10453.9532,W,,,201015,,,A*76
$GPGGA,160742.000,3947.8554,N,10453.9377,W,1,05,1.3,1700.0,M,,,,0000*26
$GPRMC,160742.000,A,3947.8554,N,10453.9377,W,,,201015,,,A*71
$GPGGA,160944.221,3947.8481,N,10453.9316,W,1,05,3.7,1739.0,M,,,,0000*2D
$GPRMC,160944.221,A,3947.8481,N,10453.9316,W,,,201015,,,A*76
$GPGGA,161147.000,3947.8567,N,10453.9390,W,1,05,1.8,1717.0,M,,,,0000*20
$GPRMC,161147.000,A,3947.8567,N,10453.9390,W,,,201015,,,A*7A
$GPGGA,161343.241,3947.8721,N,10453.9677,W,1,04,3.0,1658.0,M,,,,0000*2C
$GPRMC,161343.241,A,3947.8721,N,10453.9677,W,,,201015,,,A*77
$GPGGA,161545.000,3947.8709,N,10453.9774,W,1,06,1.1,1644.0,M,,,,0000*2F
$GPRMC,161545.000,A,3947.8709,N,10453.9774,W,,,201015,,,A*78
$GPGGA,161742.000,3947.8690,N,10453.9671,W,1,06,1.2,1660.0,M,,,,0000*2A
$GPRMC,161742.000,A,3947.8690,N,10453.9671,W,,,201015,,,A*78
$GPGGA,161943.000,3947.8711,N,10453.9695,W,1,07,1.1,1644.0,M,,,,0000*23
$GPRMC,161943.000,A,3947.8711,N,10453.9695,W,,,201015,,,A*75
$GPGGA,162142.000,3947.8815,N,10453.9686,W,1,07,1.1,1624.0,M,,,,0000*26
$GPRMC,162142.000,A,3947.8815,N,10453.9686,W,,,201015,,,A*76
$GPGGA,162342.000,3947.8736,N,10453.9661,W,1,07,1.2,1651.0,M,,,,0000*22
$GPRMC,162342.000,A,3947.8736,N,10453.9661,W,,,201015,,,A*73
$GPGGA,162543.000,3947.8761,N,10453.9786,W,1,06,1.2,1633.0,M,,,,0000*2A
$GPRMC,162543.000,A,3947.8761,N,10453.9786,W,,,201015,,,A*7E
$GPGGA,162742.000,3947.8741,N,10453.9583,W,1,06,1.2,1652.0,M,,,,0000*2B
$GPRMC,162742.000,A,3947.8741,N,10453.9583,W,,,201015,,,A*78
$GPGGA,162943.000,3947.8883,N,10454.0011,W,1,07,1.0,1575.0,M,,,,0000*20
$GPRMC,162943.000,A,3947.8883,N,10454.0011,W,,,201015,,,A*76
$GPGGA,163145.000,3947.8753,N,10453.9618,W,1,08,1.0,1623.0,M,,,,0000*23
$GPRMC,163145.000,A,3947.8753,N,10453.9618,W,,,201015,,,A*7A
$GPGGA,163441.000,3947.8799,N,10453.9773,W,1,06,1.2,1622.0,M,,,,0000*25
$GPRMC,163441.000,A,3947.8799,N,10453.9773,W,,,201015,,,A*71
$GPGGA,163641.000,3947.8719,N,10453.9489,W,1,08,1.0,1661.0,M,,,,0000*22
$GPRMC,163641.000,A,3947.8719,N,10453.9489,W,,,201015,,,A*7D
$GPGGA,163841.000,3947.8738,N,10453.9529,W,1,07,1.1,1661.0,M,,,,0000*2A
$GPRMC,163841.000,A,3947.8738,N,10453.9529,W,,,201015,,,A*7B
$GPGGA,164043.000,3947.8762,N,10453.9626,W,1,07,1.2,1646.0,M,,,,0000*22
$GPRMC,164043.000,A,3947.8762,N,10453.9626,W,,,201015,,,A*75
$GPGGA,164243.000,3947.8713,N,10453.9498,W,1,06,1.2,1664.0,M,,,,0000*20
$GPRMC,164243.000,A,3947.8713,N,10453.9498,W,,,201015,,,A*76
$GPGGA,164443.000,3947.8875,N,10454.0090,W,1,05,1.2,1568.0,M,,,,0000*27
$GPRMC,164443.000,A,3947.8875,N,10454.0090,W,,,201015,,,A*7D
$GPGGA,164643.000,3947.8748,N,10453.9406,W,1,05,1.2,1677.0,M,,,,0000*2C
$GPRMC,164643.000,A,3947.8748,N,10453.9406,W,,,201015,,,A*7B
$GPGGA,164844.000,3947.8827,N,10453.9988,W,1,05,1.4,1560.0,M,,,,0000*2B
$GPRMC,164844.000,A,3947.8827,N,10453.9988,W,,,201015,,,A*7F
$GPGGA,165042.000,3947.8714,N,10453.9778,W,1,05,1.4,1397.0,M,,,,0000*24
$GPRMC,165042.000,A,3947.8714,N,10453.9778,W,,,201015,,,A*7E
$GPGGA,165244.000,3947.8717,N,10453.9741,W,1,06,1.4,1491.0,M,,,,0000*2B
$GPRMC,165244.000,A,3947.8717,N,10453.9741,W,,,201015,,,A*73
$GPGGA,165444.000,3947.8761,N,10454.0083,W,1,06,1.4,1459.0,M,,,,0000*2F
$GPRMC,165444.000,A,3947.8761,N,10454.0083,W,,,201015,,,A*73
$GPGGA,165642.000,3947.8721,N,10453.9442,W,1,05,1.4,1663.0,M,,,,0000*20
$GPRMC,165642.000,A,3947.8721,N,10453.9442,W,,,201015,,,A*74
$GPGGA,165845.453,3947.8778,N,10454.0083,W,1,05,1.4,1511.0,M,,,,0000*26
$GPRMC,165845.453,A,3947.8778,N,10454.0083,W,,,201015,,,A*74
$GPGGA,170043.000,3947.8742,N,10453.9265,W,1,05,1.6,1701.0,M,,,,0000*22
$GPRMC,170043.000,A,3947.8742,N,10453.9265,W,,,201015,,,A*71
$GPGGA,170245.472,3947.8755,N,10453.9873,W,1,04,4.4,1547.0,M,,,,0000*2A
$GPRMC,170245.472,A,3947.8755,N,10453.9873,W,,,201015,,,A*7F
$GPGGA,170543.000,3947.8759,N,10453.9527,W,1,05,1.7,1631.0,M,,,,0000*2F
$GPRMC,170543.000,A,3947.8759,N,10453.9527,W,,,201015,,,A*7F
$GPGGA,170743.000,3947.8798,N,10453.9993,W,1,07,1.4,1559.0,M,,,,0000*2F
$GPRMC,170743.000,A,3947.8798,N,10453.9993,W,,,201015,,,A*73
$GPGGA,170943.000,3947.8772,N,10453.9427,W,1,06,1.6,1661.0,M,,,,0000*2C
$GPRMC,170943.000,A,3947.8772,N,10453.9427,W,,,201015,,,A*7B
$GPGGA,171148.000,3947.8791,N,10453.9882,W,1,06,1.6,1584.0,M,,,,0000*28
$GPRMC,171148.000,A,3947.8791,N,10453.9882,W,,,201015,,,A*77
$GPGGA,171346.000,3947.8751,N,10453.9275,W,1,06,1.6,1672.0,M,,,,0000*20
$GPRMC,171346.000,A,3947.8751,N,10453.9275,W,,,201015,,,A*75
$GPGGA,171546.000,3947.8796,N,10453.9855,W,1,07,1.5,1593.0,M,,,,0000*2B
$GPRMC,171546.000,A,3947.8796,N,10453.9855,W,,,201015,,,A*70
$GPGGA,171746.000,3947.8773,N,10453.9605,W,1,07,1.5,1624.0,M,,,,0000*26
$GPRMC,171746.000,A,3947.8773,N,10453.9605,W,,,201015,,,A*72
$GPGGA,171951.000,3947.8798,N,10453.9688,W,1,07,1.5,1619.0,M,,,,0000*20
$GPRMC,171951.000,A,3947.8798,N,10453.9688,W,,,201015,,,A*7A
$GPGGA,172147.545,3947.8788,N,10453.9556,W,1,05,1.8,1634.0,M,,,,0000*29
$GPRMC,172147.545,A,3947.8788,N,10453.9556,W,,,201015,,,A*73
$GPGGA,172348.000,3947.8777,N,10453.9222,W,1,05,1.9,1681.0,M,,,,0000*2B
$GPRMC,172348.000,A,3947.8777,N,10453.9222,W,,,201015,,,A*7E
$GPGGA,172551.564,3947.8756,N,10453.9181,W,1,04,2.1,1677.0,M,,,,0000*28
$GPRMC,172551.564,A,3947.8756,N,10453.9181,W,,,201015,,,A*7E
$GPGGA,172750.000,3947.8944,N,10454.0053,W,1,06,1.6,1605.0,M,,,,0000*22
$GPRMC,172750.000,A,3947.8944,N,10454.0053,W,,,201015,,,A*77
$GPGGA,172947.000,3947.9071,N,10454.0014,W,1,06,1.6,1642.0,M,,,,0000*24
$GPRMC,172947.000,A,3947.9071,N,10454.0014,W,,,201015,,,A*72
$GPGGA,173149.000,3947.8884,N,10453.9986,W,1,07,1.5,1605.0,M,,,,0000*2D
$GPRMC,173149.000,A,3947.8884,N,10453.9986,W,,,201015,,,A*7A
$GPGGA,173352.000,3947.8961,N,10453.9976,W,1,06,1.6,1622.0,M,,,,0000*27
$GPRMC,173352.000,A,3947.8961,N,10453.9976,W,,,201015,,,A*77
$GPGGA,173650.000,3947.8802,N,10453.9980,W,1,07,1.9,1582.0,M,,,,0000*2A
$GPRMC,173650.000,A,3947.8802,N,10453.9980,W,,,201015,,,A*7D
$GPGGA,173851.000,3947.8771,N,10454.0004,W,1,07,1.8,1569.0,M,,,,0000*21
$GPRMC,173851.000,A,3947.8771,N,10454.0004,W,,,201015,,,A*72
$GPGGA,174052.000,3947.8920,N,10453.9890,W,1,08,1.4,1607.0,M,,,,0000*24
$GPRMC,174052.000,A,3947.8920,N,10453.9890,W,,,201015,,,A*7F
$GPGGA,174253.000,3947.8974,N,10454.0243,W,1,08,1.4,1654.0,M,,,,0000*2A
$GPRMC,174253.000,A,3947.8974,N,10454.0243,W,,,201015,,,A*77
$GPGGA,174454.000,3947.8768,N,10454.0266,W,1,06,1.4,1598.0,M,,,,0000*22
$GPRMC,174454.000,A,3947.8768,N,10454.0266,W,,,201015,,,A*72
$GPGGA,174655.000,3947.8920,N,10453.9986,W,1,07,1.4,1627.0,M,,,,0000*2E
$GPRMC,174655.000,A,3947.8920,N,10453.9986,W,,,201015,,,A*78
$GPGGA,174856.000,3947.8862,N,10454.0015,W,1,06,1.5,1660.0,M,,,,0000*2A
$GPRMC,174856.000,A,3947.8862,N,10454.0015,W,,,201015,,,A*7F
$GPGGA,175057.000,3947.8890,N,10454.0023,W,1,07,1.4,1608.0,M,,,,0000*24
$GPRMC,175057.000,A,3947.8890,N,10454.0023,W,,,201015,,,A*7F
$GPGGA,175258.664,3947.9064,N,10454.0005,W,1,04,2.2,1652.0,M,,,,0000*22
$GPRMC,175258.664,A,3947.9064,N,10454.0005,W,,,201015,,,A*70
$GPGGA,175459.000,3947.8840,N,10453.9822,W,1,06,1.4,1622.0,M,,,,0000*2D
$GPRMC,175459.000,A,3947.8840,N,10453.9822,W,,,201015,,,A*7F
$GPGGA,175659.000,3947.8862,N,10453.9985,W,1,06,1.4,1584.0,M,,,,0000*2C
$GPRMC,175659.000,A,3947.8862,N,10453.9985,W,,,201015,,,A*71
$GPGGA,175900.000,3947.8873,N,10453.9993,W,1,06,1.4,1555.0,M,,,,0000*24
$GPRMC,175900.000,A,3947.8873,N,10453.9993,W,,,201015,,,A*75
$GPGGA,180101.000,3947.8833,N,10454.0012,W,1,06,1.4,1629.0,M,,,,0000*25
$GPRMC,180101.000,A,3947.8833,N,10454.0012,W,,,201015,,,A*7C
$GPGGA,180302.000,3947.8865,N,10453.9916,W,1,06,1.4,1602.0,M,,,,0000*2D
$GPRMC,180302.000,A,3947.8865,N,10453.9916,W,,,201015,,,A*7D
$GPGGA,180506.000,3947.8837,N,10453.9959,W,1,05,1.4,1657.0,M,,,,0000*20
$GPRMC,180506.000,A,3947.8837,N,10453.9959,W,,,201015,,,A*73
$GPGGA,180802.000,3947.9009,N,10453.9923,W,1,05,2.1,1601.0,M,,,,0000*25
$GPRMC,180802.000,A,3947.9009,N,10453.9923,W,,,201015,,,A*73
$GPGGA,181003.000,3947.8904,N,10453.9862,W,1,06,1.4,1610.0,M,,,,0000*29
$GPRMC,181003.000,A,3947.8904,N,10453.9862,W,,,201015,,,A*7A
$GPGGA,181205.749,3947.8901,N,10453.9838,W,1,04,5.4,1619.0,M,,,,0000*22
$GPRMC,181205.749,A,3947.8901,N,10453.9838,W,,,201015,,,A*7E
$GPGGA,181404.763,3947.8885,N,10453.9670,W,1,04,2.4,1739.0,M,,,,0000*26
$GPRMC,181404.763,A,3947.8885,N,10453.9670,W,,,201015,,,A*7E
$GPGGA,181608.798,3947.8656,N,10453.9586,W,1,04,2.8,1694.0,M,,,,0000*2C
$GPRMC,181608.798,A,3947.8656,N,10453.9586,W,,,201015,,,A*7E
$GPGGA,181803.807,3947.9422,N,10454.0200,W,1,04,6.9,1666.0,M,,,,0000*2F
$GPRMC,181803.807,A,3947.9422,N,10454.0200,W,,,201015,,,A*75
$GPGGA,182004.000,3947.8878,N,10453.9974,W,1,05,1.5,1608.0,M,,,,0000*2A
$GPRMC,182004.000,A,3947.8878,N,10453.9974,W,,,201015,,,A*72
$GPGGA,182202.822,3947.8973,N,10453.9999,W,1,04,1.6,1545.0,M,,,,0000*27
$GPRMC,182202.822,A,3947.8973,N,10453.9999,W,,,201015,,,A*77
$GPGGA,182405.831,3947.8944,N,10453.9986,W,1,04,2.1,1708.0,M,,,,0000*21
$GPRMC,182405.831,A,3947.8944,N,10453.9986,W,,,201015,,,A*7E
$GPGGA,182603.839,3947.8875,N,10453.9970,W,1,04,1.7,1598.0,M,,,,0000*29
$GPRMC,182603.839,A,3947.8875,N,10453.9970,W,,,201015,,,A*78
$GPGGA,182807.000,3947.8874,N,10454.0012,W,1,05,1.7,1540.0,M,,,,0000*27
$GPRMC,182807.000,A,3947.8874,N,10454.0012,W,,,201015,,,A*72
$GPGGA,183007.870,3947.8931,N,10454.0010,W,1,04,2.4,1630.0,M,,,,0000*26
$GPRMC,183007.870,A,3947.8931,N,10454.0010,W,,,201015,,,A*76
$GPGGA,183203.000,3947.9145,N,10453.9972,W,1,05,2.0,1632.0,M,,,,0000*21
$GPRMC,183203.000,A,3947.9145,N,10453.9972,W,,,201015,,,A*76
$GPGGA,183405.000,3947.8957,N,10454.0048,W,1,05,1.9,1567.0,M,,,,0000*2C
$GPRMC,183405.000,A,3947.8957,N,10454.0048,W,,,201015,,,A*72
$GPGGA,183606.000,3947.9035,N,10453.9898,W,1,05,2.2,1668.0,M,,,,0000*2E
$GPRMC,183606.000,A,3947.9035,N,10453.9898,W,,,201015,,,A*74
$GPGGA,183903.000,3947.8902,N,10453.9844,W,1,06,1.9,1716.0,M,,,,0000*2A
$GPRMC,183903.000,A,3947.8902,N,10453.9844,W,,,201015,,,A*73
$GPGGA,184104.000,3947.8905,N,10453.9884,W,1,05,2.0,1640.0,M,,,,0000*22
$GPRMC,184104.000,A,3947.8905,N,10453.9884,W,,,201015,,,A*70
$GPGGA,184302.928,3947.8897,N,10454.0028,W,1,04,2.2,1648.0,M,,,,0000*24
$GPRMC,184302.928,A,3947.8897,N,10454.0028,W,,,201015,,,A*7D
$GPGGA,184503.000,3947.8854,N,10454.0054,W,1,06,2.0,1629.0,M,,,,0000*23
$GPRMC,184503.000,A,3947.8854,N,10454.0054,W,,,201015,,,A*7D
$GPGGA,184707.000,3947.8963,N,10453.9946,W,1,05,2.2,1622.0,M,,,,0000*2E
$GPRMC,184707.000,A,3947.8963,N,10453.9946,W,,,201015,,,A*7A
$GPGGA,184904.000,3947.8758,N,10453.9958,W,1,05,2.3,1606.0,M,,,,0000*2D
$GPRMC,184904.000,A,3947.8758,N,10453.9958,W,,,201015,,,A*7E
$GPGGA,185106.000,3947.8906,N,10453.9913,W,1,06,2.2,1624.0,M,,,,0000*2E
$GPRMC,185106.000,A,3947.8906,N,10453.9913,W,,,201015,,,A*7F
$GPGGA,185307.000,3947.8986,N,10453.9963,W,1,06,2.4,1599.0,M,,,,0000*21
$GPRMC,185307.000,A,3947.8986,N,10453.9963,W,,,201015,,,A*73
$GPGGA,185503.000,3947.9012,N,10453.9992,W,1,06,2.5,1585.0,M,,,,0000*24
$GPRMC,185503.000,A,3947.9012,N,10453.9992,W,,,201015,,,A*7A
$GPGGA,185703.000,3947.8908,N,10453.9981,W,1,07,1.9,1596.0,M,,,,0000*2B
$GPRMC,185703.000,A,3947.8908,N,10453.9981,W,,,201015,,,A*79
$GPGGA,185906.000,3947.9161,N,10454.0093,W,1,06,2.2,1545.0,M,,,,0000*25
$GPRMC,185906.000,A,3947.9161,N,10454.0093,W,,,201015,,,A*70
$GPGGA,190101.000,3947.8966,N,10454.0020,W,1,06,2.6,1587.0,M,,,,0000*22
$GPRMC,190101.000,A,3947.8966,N,10454.0020,W,,,201015,,,A*7D
$GPGGA,190301.000,3947.8886,N,10453.9973,W,1,05,4.0,1602.0,M,,,,0000*23
$GPRMC,190301.000,A,3947.8886,N,10453.9973,W,,,201015,,,A*71
$GPGGA,190505.000,3947.9019,N,10454.0028,W,1,05,4.2,1563.0,M,,,,0000*21
$GPRMC,190505.000,A,3947.9019,N,10454.0028,W,,,201015,,,A*75
$GPGGA,190706.000,3947.8939,N,10454.0012,W,1,07,2.1,1591.0,M,,,,0000*29
$GPRMC,190706.000,A,3947.8939,N,10454.0012,W,,,201015,,,A*77
$GPGGA,191004.000,3947.8964,N,10454.0041,W,1,07,1.6,1580.0,M,,,,0000*27
$GPRMC,191004.000,A,3947.8964,N,10454.0041,W,,,201015,,,A*7D
$GPGGA,191205.000,3947.8988,N,10454.0087,W,1,05,4.7,1593.0,M,,,,0000*28
$GPRMC,191205.000,A,3947.8988,N,10454.0087,W,,,201015,,,A*76
$GPGGA,191405.000,3947.8901,N,10454.0029,W,1,05,3.1,1601.0,M,,,,0000*22
$GPRMC,191405.000,A,3947.8901,N,10454.0029,W,,,201015,,,A*75
$GPGGA,191606.000,3947.8993,N,10454.0109,W,1,06,3.0,1586.0,M,,,,0000*25
$GPRMC,191606.000,A,3947.8993,N,10454.0109,W,,,201015,,,A*7C
$GPGGA,191806.000,3947.8901,N,10454.0011,W,1,07,2.4,1586.0,M,,,,0000*2C
$GPRMC,191806.000,A,3947.8901,N,10454.0011,W,,,201015,,,A*71
$GPGGA,192005.000,3947.8975,N,10454.0077,W,1,06,3.1,1590.0,M,,,,0000*25
$GPRMC,192005.000,A,3947.8975,N,10454.0077,W,,,201015,,,A*7A
$GPGGA,192205.000,3947.8767,N,10453.9913,W,1,07,1.6,1615.0,M,,,,0000*25
$GPRMC,192205.000,A,3947.8767,N,10453.9913,W,,,201015,,,A*70
$GPGGA,192405.000,3947.8887,N,10453.9990,W,1,07,2.5,1616.0,M,,,,0000*2A
$GPRMC,192405.000,A,3947.8887,N,10453.9990,W,,,201015,,,A*7C
$GPGGA,192605.000,3947.9027,N,10454.0100,W,1,07,1.6,1572.0,M,,,,0000*25
$GPRMC,192605.000,A,3947.9027,N,10454.0100,W,,,201015,,,A*72
$GPGGA,192803.000,3947.9041,N,10454.0071,W,1,06,1.6,1563.0,M,,,,0000*2B
$GPRMC,192803.000,A,3947.9041,N,10454.0071,W,,,201015,,,A*7D
$GPGGA,193001.185,3947.8837,N,10453.9903,W,1,04,4.8,1624.0,M,,,,0000*2F
$GPRMC,193001.185,A,3947.8837,N,10453.9903,W,,,201015,,,A*70
$GPGGA,193205.000,3947.9075,N,10454.0119,W,1,07,1.6,1562.0,M,,,,0000*2E
$GPRMC,193205.000,A,3947.9075,N,10454.0119,W,,,201015,,,A*78
$GPGGA,193405.000,3947.8750,N,10453.9844,W,1,06,1.1,1622.0,M,,,,0000*27
$GPRMC,193405.000,A,3947.8750,N,10453.9844,W,,,201015,,,A*70
$GPGGA,193604.000,3947.8754,N,10453.9940,W,1,05,1.1,1685.0,M,,,,0000*2B
$GPRMC,193604.000,A,3947.8754,N,10453.9940,W,,,201015,,,A*72
$GPGGA,193806.000,3947.8936,N,10454.0023,W,1,08,0.9,1575.0,M,,,,0000*27
$GPRMC,193806.000,A,3947.8936,N,10454.0023,W,,,201015,,,A*76
$GPGGA,194103.000,3947.8899,N,10454.0023,W,1,09,0.8,1601.0,M,,,,0000*28
$GPRMC,194103.000,A,3947.8899,N,10454.0023,W,,,201015,,,A*79
$GPGGA,194303.000,3947.8836,N,10453.9962,W,1,06,0.9,1607.0,M,,,,0000*25
$GPRMC,194303.000,A,3947.8836,N,10453.9962,W,,,201015,,,A*7C
$GPGGA,194503.000,3947.8873,N,10453.9995,W,1,09,0.8,1610.0,M,,,,0000*22
$GPRMC,194503.000,A,3947.8873,N,10453.9995,W,,,201015,,,A*73
$GPGGA,194703.000,3947.8881,N,10453.9967,W,1,08,0.8,1614.0,M,,,,0000*25
$GPRMC,194703.000,A,3947.8881,N,10453.9967,W,,,201015,,,A*71
$GPGGA,194903.000,3947.8864,N,10453.9999,W,1,08,0.9,1608.0,M,,,,0000*2D
$GPRMC,194903.000,A,3947.8864,N,10453.9999,W,,,201015,,,A*75
$GPGGA,195104.000,3947.8904,N,10453.9959,W,1,07,1.0,1605.0,M,,,,0000*22
$GPRMC,195104.000,A,3947.8904,N,10453.9959,W,,,201015,,,A*70
$GPGGA,195311.000,3947.8777,N,10454.0051,W,1,09,0.9,1586.0,M,,,,0000*2F
$GPRMC,195311.000,A,3947.8777,N,10454.0051,W,,,201015,,,A*73
$GPGGA,195513.000,3947.9097,N,10454.0234,W,1,06,1.4,1915.0,M,,,,0000*27
$GPRMC,195513.000,A,3947.9097,N,10454.0234,W,,,201015,,,A*7E
$GPGGA,195713.000,3947.8854,N,10453.9912,W,1,10,0.8,1603.0,M,,,,0000*20
$GPRMC,195713.000,A,3947.8854,N,10453.9912,W,,,201015,,,A*7B
$GPGGA,195913.000,3947.8891,N,10454.0009,W,1,10,0.8,1622.0,M,,,,0000*29
$GPRMC,195913.000,A,3947.8891,N,10454.0009,W,,,201015,,,A*71
$GPGGA,200113.000,3947.8805,N,10453.9686,W,1,09,1.0,1627.0,M,,,,0000*28
$GPRMC,200113.000,A,3947.8805,N,10453.9686,W,,,201015,,,A*74
$GPGGA,200313.000,3947.8840,N,10453.9834,W,1,09,1.0,1610.0,M,,,,0000*28
$GPRMC,200313.000,A,3947.8840,N,10453.9834,W,,,201015,,,A*70
