@CanonGPS/ver1.0/wgs-84/Canon EOS 6D/242020004950/fe98
$GPGGA,060311.765,4020.3477,N,10534.2384,W,1,04,5.8,2677.0,M,,,,0000*2E
$GPRMC,060311.765,A,4020.3477,N,10534.2384,W,,,171015,,,A*71
$GPGGA,060815.687,4020.3543,N,10534.2189,W,1,04,5.6,2633.0,M,,,,0000*2B
$GPRMC,060815.687,A,4020.3543,N,10534.2189,W,,,171015,,,A*7A
$GPGGA,061425.806,4020.3918,N,10534.1202,W,1,04,5.4,2513.0,M,,,,0000*20
$GPRMC,061425.806,A,4020.3918,N,10534.1202,W,,,171015,,,A*72
$GPGGA,062548.883,4020.4420,N,10534.1611,W,1,04,5.0,2331.0,M,,,,0000*21
$GPRMC,062548.883,A,4020.4420,N,10534.1611,W,,,171015,,,A*71
$GPGGA,063154.845,4020.3995,N,10534.1274,W,1,04,2.1,2437.0,M,,,,0000*27
$GPRMC,063154.845,A,4020.3995,N,10534.1274,W,,,171015,,,A*70
$GPGGA,064726.016,4020.3896,N,10534.1252,W,1,04,1.9,2461.0,M,,,,0000*23
$GPRMC,064726.016,A,4020.3896,N,10534.1252,W,,,171015,,,A*7C
$GPGGA,065630.057,4020.3983,N,10534.1213,W,1,04,5.2,2435.0,M,,,,0000*2F
$GPRMC,065630.057,A,4020.3983,N,10534.1213,W,,,171015,,,A*7E
$GPGGA,070155.104,4020.3930,N,10534.1062,W,1,03,3.7,2465.0,M,,,,0000*25
$GPRMC,070155.104,A,4020.3930,N,10534.1062,W,,,171015,,,A*75
$GPGGA,070656.000,4020.4089,N,10534.1295,W,1,05,1.9,2383.0,M,,,,0000*27
$GPRMC,070656.000,A,4020.4089,N,10534.1295,W,,,171015,,,A*72
$GPGGA,071153.000,4020.4036,N,10534.1269,W,1,05,1.9,2408.0,M,,,,0000*27
$GPRMC,071153.000,A,4020.4036,N,10534.1269,W,,,171015,,,A*76
$GPGGA,071702.196,4020.4122,N,10534.1351,W,1,04,2.3,2370.0,M,,,,0000*25
$GPRMC,071702.196,A,4020.4122,N,10534.1351,W,,,171015,,,A*74
$GPGGA,072159.120,4020.4074,N,10534.1262,W,1,04,2.5,2368.0,M,,,,0000*2F
$GPRMC,072159.120,A,4020.4074,N,10534.1262,W,,,171015,,,A*71
$GPGGA,072754.257,4020.4103,N,10534.1256,W,1,04,3.1,2406.0,M,,,,0000*2B
$GPRMC,072754.257,A,4020.4103,N,10534.1256,W,,,171015,,,A*7F
$GPGGA,074709.332,4020.4173,N,10534.1229,W,1,03,3.8,2401.0,M,,,,0000*21
$GPRMC,074709.332,A,4020.4173,N,10534.1229,W,,,171015,,,A*7C
$GPGGA,075229.274,4020.3984,N,10534.1241,W,1,03,3.4,2401.0,M,,,,0000*21
$GPRMC,075229.274,A,4020.3984,N,10534.1241,W,,,171015,,,A*70
$GPGGA,075726.286,4020.4092,N,10534.1257,W,1,03,3.2,2401.0,M,,,,0000*2E
$GPRMC,075726.286,A,4020.4092,N,10534.1257,W,,,171015,,,A*79
$GPGGA,081242.276,4020.4070,N,10534.1408,W,1,03,2.9,2401.0,M,,,,0000*27
$GPRMC,081242.276,A,4020.4070,N,10534.1408,W,,,171015,,,A*7A
$GPGGA,082154.228,4020.4095,N,10534.1401,W,1,03,2.9,2401.0,M,,,,0000*29
$GPRMC,082154.228,A,4020.4095,N,10534.1401,W,,,171015,,,A*74
$GPGGA,082847.371,4020.4241,N,10534.1309,W,1,03,3.0,2401.0,M,,,,0000*23
$GPRMC,082847.371,A,4020.4241,N,10534.1309,W,,,171015,,,A*76
$GPGGA,084109.418,4020.3994,N,10534.1121,W,1,04,5.7,2427.0,M,,,,0000*20
$GPRMC,084109.418,A,4020.3994,N,10534.1121,W,,,171015,,,A*77
$GPGGA,084609.346,4020.4222,N,10534.1566,W,1,04,3.4,2357.0,M,,,,0000*28
$GPRMC,084609.346,A,4020.4222,N,10534.1566,W,,,171015,,,A*7A
$GPGGA,085138.470,4020.4224,N,10534.1575,W,1,04,3.6,2363.0,M,,,,0000*2F
$GPRMC,085138.470,A,4020.4224,N,10534.1575,W,,,171015,,,A*78
$GPGGA,085651.395,4020.4188,N,10534.1498,W,1,04,27.7,2378.0,M,,,,0000*11
$GPRMC,085651.395,A,4020.4188,N,10534.1498,W,,,171015,,,A*7B
$GPGGA,090344.525,4020.4062,N,10534.1725,W,1,03,4.4,2374.0,M,,,,0000*20
$GPRMC,090344.525,A,4020.4062,N,10534.1725,W,,,171015,,,A*73
$GPGGA,091355.574,4019.9965,N,10532.8161,W,1,04,4.1,4436.0,M,,,,0000*20
$GPRMC,091355.574,A,4019.9965,N,10532.8161,W,,,171015,,,A*76
$GPGGA,103558.984,4020.4030,N,10534.1272,W,1,04,6.6,2419.0,M,,,,0000*2C
$GPRMC,103558.984,A,4020.4030,N,10534.1272,W,,,171015,,,A*74
$GPGGA,110043.109,4020.3953,N,10534.0879,W,1,04,4.9,2484.0,M,,,,0000*2E
$GPRMC,110043.109,A,4020.3953,N,10534.0879,W,,,171015,,,A*7F
$GPGGA,111024.066,4020.4190,N,10534.0993,W,1,04,5.1,2436.0,M,,,,0000*23
$GPRMC,111024.066,A,4020.4190,N,10534.0993,W,,,171015,,,A*72
$GPGGA,112258.226,4020.4047,N,10534.1203,W,1,04,3.7,2533.0,M,,,,0000*23
$GPRMC,112258.226,A,4020.4047,N,10534.1203,W,,,171015,,,A*76
$GPGGA,113245.279,4020.3901,N,10534.1167,W,1,04,3.9,2453.0,M,,,,0000*20
$GPRMC,113245.279,A,4020.3901,N,10534.1167,W,,,171015,,,A*7C
$GPGGA,113843.209,4020.4056,N,10534.1320,W,1,04,3.1,2380.0,M,,,,0000*27
$GPRMC,113843.209,A,4020.4056,N,10534.1320,W,,,171015,,,A*7A
$GPGGA,114801.257,4020.5607,N,10534.4059,W,1,03,3.2,963.0,M,,,,0000*17
$GPRMC,114801.257,A,4020.5607,N,10534.4059,W,,,171015,,,A*7B
$GPGGA,115251.284,4020.5294,N,10534.4067,W,1,03,3.3,963.0,M,,,,0000*15
$GPRMC,115251.284,A,4020.5294,N,10534.4067,W,,,171015,,,A*78
$GPGGA,115843.312,4020.4336,N,10534.3367,W,1,04,3.5,1252.0,M,,,,0000*27
$GPRMC,115843.312,A,4020.4336,N,10534.3367,W,,,171015,,,A*73
$GPGGA,120406.259,4020.4068,N,10534.1360,W,1,04,5.8,2430.0,M,,,,0000*25
$GPRMC,120406.259,A,4020.4068,N,10534.1360,W,,,171015,,,A*7B
$GPGGA,120904.303,4020.3971,N,10534.1315,W,1,04,1.5,2482.0,M,,,,0000*20
$GPRMC,120904.303,A,4020.3971,N,10534.1315,W,,,171015,,,A*7E
$GPGGA,121834.000,4020.4028,N,10534.1236,W,1,05,1.2,2449.0,M,,,,0000*20
$GPRMC,121834.000,A,4020.4028,N,10534.1236,W,,,171015,,,A*7F
$GPGGA,122354.470,4020.3955,N,10534.1290,W,1,04,1.3,2426.0,M,,,,0000*2C
$GPRMC,122354.470,A,4020.3955,N,10534.1290,W,,,171015,,,A*7A
$GPGGA,122939.499,4020.4024,N,10534.1234,W,1,03,1.7,2433.0,M,,,,0000*2B
$GPRMC,122939.499,A,4020.4024,N,10534.1234,W,,,171015,,,A*7A
$GPGGA,123833.533,4020.4034,N,10534.1261,W,1,04,1.3,2417.0,M,,,,0000*24
$GPRMC,123833.533,A,4020.4034,N,10534.1261,W,,,171015,,,A*70
$GPGGA,124506.565,4020.4070,N,10534.1179,W,1,04,1.3,2413.0,M,,,,0000*25
$GPRMC,124506.565,A,4020.4070,N,10534.1179,W,,,171015,,,A*75
$GPGGA,125010.498,4020.4041,N,10534.1212,W,1,04,1.3,2444.0,M,,,,0000*2B
$GPRMC,125010.498,A,4020.4041,N,10534.1212,W,,,171015,,,A*79
$GPGGA,125550.522,4020.3988,N,10534.1231,W,1,03,5.8,2436.0,M,,,,0000*2D
$GPRMC,125550.522,A,4020.3988,N,10534.1231,W,,,171015,,,A*72
$GPGGA,140240.861,4020.4165,N,10534.1184,W,1,04,2.6,2424.0,M,,,,0000*2E
$GPRMC,140240.861,A,4020.4165,N,10534.1184,W,,,171015,,,A*7C
$GPGGA,140518.977,4020.1623,N,10533.4852,W,1,03,2.8,5462.0,M,,,,0000*2E
$GPRMC,140518.977,A,4020.1623,N,10533.4852,W,,,171015,,,A*70
$GPGGA,140722.703,4020.1744,N,10533.4595,W,1,03,2.8,5462.0,M,,,,0000*2E
$GPRMC,140722.703,A,4020.1744,N,10533.4595,W,,,171015,,,A*70
$GPGGA,140939.010,4020.1732,N,10533.3725,W,1,03,2.8,5462.0,M,,,,0000*20
$GPRMC,140939.010,A,4020.1732,N,10533.3725,W,,,171015,,,A*7E
$GPGGA,141318.037,4020.4689,N,10534.2417,W,1,04,3.3,2461.0,M,,,,0000*24
$GPRMC,141318.037,A,4020.4689,N,10534.2417,W,,,171015,,,A*73
$GPGGA,141519.051,4020.5472,N,10534.2351,W,1,04,3.3,2415.0,M,,,,0000*22
$GPRMC,141519.051,A,4020.5472,N,10534.2351,W,,,171015,,,A*76
$GPGGA,141720.060,4020.5806,N,10534.3196,W,1,04,3.4,2416.0,M,,,,0000*2B
$GPRMC,141720.060,A,4020.5806,N,10534.3196,W,,,171015,,,A*7B
$GPGGA,141918.068,4020.5222,N,10533.6428,W,1,03,2.9,4581.0,M,,,,0000*2A
$GPRMC,141918.068,A,4020.5222,N,10533.6428,W,,,171015,,,A*78
$GPGGA,142119.079,4020.7182,N,10534.3125,W,1,04,3.5,2402.0,M,,,,0000*27
$GPRMC,142119.079,A,4020.7182,N,10534.3125,W,,,171015,,,A*73
$GPGGA,142309.588,4020.7674,N,10534.3353,W,1,04,3.6,2377.0,M,,,,0000*24
$GPRMC,142309.588,A,4020.7674,N,10534.3353,W,,,171015,,,A*76
$GPGGA,142526.000,4020.8527,N,10534.3026,W,1,05,1.6,2394.0,M,,,,0000*2F
$GPRMC,142526.000,A,4020.8527,N,10534.3026,W,,,171015,,,A*73
$GPGGA,142727.000,4020.9142,N,10534.3034,W,1,05,1.6,2377.0,M,,,,0000*24
$GPRMC,142727.000,A,4020.9142,N,10534.3034,W,,,171015,,,A*75
$GPGGA,142928.000,4020.9175,N,10534.3042,W,1,05,1.6,2418.0,M,,,,0000*2E
$GPRMC,142928.000,A,4020.9175,N,10534.3042,W,,,171015,,,A*71
$GPGGA,143125.000,4020.9246,N,10534.3283,W,1,05,1.6,2376.0,M,,,,0000*29
$GPRMC,143125.000,A,4020.9246,N,10534.3283,W,,,171015,,,A*79
$GPGGA,143327.000,4020.9840,N,10534.3947,W,1,05,1.6,2389.0,M,,,,0000*26
$GPRMC,143327.000,A,4020.9840,N,10534.3947,W,,,171015,,,A*76
$GPGGA,143527.000,4021.0171,N,10534.4787,W,1,05,1.6,2393.0,M,,,,0000*2D
$GPRMC,143527.000,A,4021.0171,N,10534.4787,W,,,171015,,,A*76
$GPGGA,143726.167,4021.0274,N,10534.5336,W,1,04,1.8,2402.0,M,,,,0000*27
$GPRMC,143726.167,A,4021.0274,N,10534.5336,W,,,171015,,,A*7C
$GPGGA,143925.177,4021.0600,N,10534.6319,W,1,04,1.8,2457.0,M,,,,0000*22
$GPRMC,143925.177,A,4021.0600,N,10534.6319,W,,,171015,,,A*79
$GPGGA,144126.185,4021.0564,N,10534.6266,W,1,04,1.8,2429.0,M,,,,0000*22
$GPRMC,144126.185,A,4021.0564,N,10534.6266,W,,,171015,,,A*70
$GPGGA,144329.196,4021.0575,N,10534.7106,W,1,04,1.8,2436.0,M,,,,0000*27
$GPRMC,144329.196,A,4021.0575,N,10534.7106,W,,,171015,,,A*7B
$GPGGA,144526.217,4021.1040,N,10534.7841,W,1,04,1.9,2455.0,M,,,,0000*28
$GPRMC,144526.217,A,4021.1040,N,10534.7841,W,,,171015,,,A*70
$GPGGA,144716.618,4021.0993,N,10534.8170,W,1,04,1.9,2444.0,M,,,,0000*20
$GPRMC,144716.618,A,4021.0993,N,10534.8170,W,,,171015,,,A*78
$GPGGA,144957.242,4021.1367,N,10534.8814,W,1,04,1.9,2459.0,M,,,,0000*27
$GPRMC,144957.242,A,4021.1367,N,10534.8814,W,,,171015,,,A*73
$GPGGA,145200.250,4021.1857,N,10534.9305,W,1,04,1.9,2451.0,M,,,,0000*26
$GPRMC,145200.250,A,4021.1857,N,10534.9305,W,,,171015,,,A*7A
$GPGGA,145401.260,4021.2346,N,10535.0180,W,1,04,1.9,2438.0,M,,,,0000*22
$GPRMC,145401.260,A,4021.2346,N,10535.0180,W,,,171015,,,A*71
$GPGGA,145601.270,4021.2384,N,10535.0595,W,1,04,1.9,2446.0,M,,,,0000*26
$GPRMC,145601.270,A,4021.2384,N,10535.0595,W,,,171015,,,A*7C
$GPGGA,145907.000,4021.2454,N,10535.1166,W,1,04,4.3,2448.0,M,,,,0000*28
$GPRMC,145907.000,A,4021.2454,N,10535.1166,W,,,171015,,,A*73
$GPGGA,150109.000,4021.2386,N,10535.1849,W,1,06,1.3,2442.0,M,,,,0000*2B
$GPRMC,150109.000,A,4021.2386,N,10535.1849,W,,,171015,,,A*7D
$GPGGA,150307.000,4021.2467,N,10535.2114,W,1,04,2.0,2437.0,M,,,,0000*2D
$GPRMC,150307.000,A,4021.2467,N,10535.2114,W,,,171015,,,A*7B
$GPGGA,150507.000,4021.2778,N,10535.2594,W,1,06,1.2,2453.0,M,,,,0000*2B
$GPRMC,150507.000,A,4021.2778,N,10535.2594,W,,,171015,,,A*7C
$GPGGA,150707.000,4021.2938,N,10535.3656,W,1,06,1.2,2451.0,M,,,,0000*2D
$GPRMC,150707.000,A,4021.2938,N,10535.3656,W,,,171015,,,A*78
$GPGGA,150906.000,4021.3139,N,10535.4680,W,1,06,1.2,2446.0,M,,,,0000*20
$GPRMC,150906.000,A,4021.3139,N,10535.4680,W,,,171015,,,A*73
$GPGGA,151106.000,4021.3641,N,10535.5441,W,1,06,1.2,2454.0,M,,,,0000*2C
$GPRMC,151106.000,A,4021.3641,N,10535.5441,W,,,171015,,,A*7C
$GPGGA,151306.000,4021.4292,N,10535.6083,W,1,06,1.2,2463.0,M,,,,0000*2E
$GPRMC,151306.000,A,4021.4292,N,10535.6083,W,,,171015,,,A*7A
$GPGGA,151506.000,4021.4892,N,10535.6601,W,1,05,1.5,2464.0,M,,,,0000*2D
$GPRMC,151506.000,A,4021.4892,N,10535.6601,W,,,171015,,,A*7A
$GPGGA,151709.000,4021.5119,N,10535.6910,W,1,05,1.6,2466.0,M,,,,0000*25
$GPRMC,151709.000,A,4021.5119,N,10535.6910,W,,,171015,,,A*73
$GPGGA,151909.000,4021.5101,N,10535.6890,W,1,05,1.6,2479.0,M,,,,0000*25
$GPRMC,151909.000,A,4021.5101,N,10535.6890,W,,,171015,,,A*7D
$GPGGA,152223.000,4021.5131,N,10535.7508,W,1,05,1.6,2468.0,M,,,,0000*2B
$GPRMC,152223.000,A,4021.5131,N,10535.7508,W,,,171015,,,A*73
$GPGGA,152421.000,4021.5181,N,10535.8525,W,1,05,1.6,2470.0,M,,,,0000*2D
$GPRMC,152421.000,A,4021.5181,N,10535.8525,W,,,171015,,,A*7C
$GPGGA,152621.000,4021.5591,N,10535.9354,W,1,05,1.7,2479.0,M,,,,0000*23
$GPRMC,152621.000,A,4021.5591,N,10535.9354,W,,,171015,,,A*7A
$GPGGA,152949.000,4021.5537,N,10535.9551,W,1,05,1.7,2489.0,M,,,,0000*22
$GPRMC,152949.000,A,4021.5537,N,10535.9551,W,,,171015,,,A*74
$GPGGA,153151.000,4021.5363,N,10535.9959,W,1,05,1.8,2482.0,M,,,,0000*25
$GPRMC,153151.000,A,4021.5363,N,10535.9959,W,,,171015,,,A*77
$GPGGA,153350.376,4021.5248,N,10536.0318,W,1,04,2.3,2499.0,M,,,,0000*2A
$GPRMC,153350.376,A,4021.5248,N,10536.0318,W,,,171015,,,A*7B
$GPGGA,153551.000,4021.5263,N,10536.0904,W,1,05,1.9,2499.0,M,,,,0000*29
$GPRMC,153551.000,A,4021.5263,N,10536.0904,W,,,171015,,,A*70
$GPGGA,153749.000,4021.4850,N,10536.1257,W,1,05,2.0,2472.0,M,,,,0000*2A
$GPRMC,153749.000,A,4021.4850,N,10536.1257,W,,,171015,,,A*7C
$GPGGA,153949.000,4021.4337,N,10536.1741,W,1,05,2.0,2479.0,M,,,,0000*27
$GPRMC,153949.000,A,4021.4337,N,10536.1741,W,,,171015,,,A*7A
$GPGGA,154151.000,4021.4082,N,10536.2040,W,1,05,2.1,2463.0,M,,,,0000*23
$GPRMC,154151.000,A,4021.4082,N,10536.2040,W,,,171015,,,A*74
$GPGGA,154351.543,4021.4003,N,10536.3202,W,1,04,2.7,2456.0,M,,,,0000*2E
$GPRMC,154351.543,A,4021.4003,N,10536.3202,W,,,171015,,,A*78
$GPGGA,154549.556,4021.4137,N,10536.4316,W,1,04,2.8,2474.0,M,,,,0000*2F
$GPRMC,154549.556,A,4021.4137,N,10536.4316,W,,,171015,,,A*76
$GPGGA,154751.572,4021.3781,N,10536.4864,W,1,04,2.9,2463.0,M,,,,0000*27
$GPRMC,154751.572,A,4021.3781,N,10536.4864,W,,,171015,,,A*79
$GPGGA,154951.576,4021.3300,N,10536.4887,W,1,04,3.1,2461.0,M,,,,0000*26
$GPRMC,154951.576,A,4021.3300,N,10536.4887,W,,,171015,,,A*73
$GPGGA,155302.587,4021.2921,N,10536.4610,W,1,04,3.5,2471.0,M,,,,0000*28
$GPRMC,155302.587,A,4021.2921,N,10536.4610,W,,,171015,,,A*78
$GPGGA,155636.166,4021.2829,N,10536.3802,W,1,04,4.0,2469.0,M,,,,0000*29
$GPRMC,155636.166,A,4021.2829,N,10536.3802,W,,,171015,,,A*72
$GPGGA,155828.528,4021.2506,N,10536.3328,W,1,04,4.4,2464.0,M,,,,0000*2C
$GPRMC,155828.528,A,4021.2506,N,10536.3328,W,,,171015,,,A*7E
$GPGGA,160042.477,4021.2602,N,10536.2148,W,1,04,5.0,2469.0,M,,,,0000*2F
$GPRMC,160042.477,A,4021.2602,N,10536.2148,W,,,171015,,,A*75
$GPGGA,160325.500,4021.2429,N,10536.1220,W,1,04,6.0,2456.0,M,,,,0000*26
$GPRMC,160325.500,A,4021.2429,N,10536.1220,W,,,171015,,,A*73
$GPGGA,160526.510,4021.1864,N,10536.0643,W,1,04,3.4,2457.0,M,,,,0000*24
$GPRMC,160526.510,A,4021.1864,N,10536.0643,W,,,171015,,,A*71
$GPGGA,160726.519,4021.1010,N,10536.0616,W,1,04,3.4,2482.0,M,,,,0000*2C
$GPRMC,160726.519,A,4021.1010,N,10536.0616,W,,,171015,,,A*71
$GPGGA,160928.528,4021.0940,N,10536.0516,W,1,04,3.5,2465.0,M,,,,0000*28
$GPRMC,160928.528,A,4021.0940,N,10536.0516,W,,,171015,,,A*7D
$GPGGA,161118.212,4021.0453,N,10536.0529,W,1,03,4.3,2484.0,M,,,,0000*26
$GPRMC,161118.212,A,4021.0453,N,10536.0529,W,,,171015,,,A*7A
$GPGGA,161345.000,4021.0262,N,10536.0542,W,1,06,1.8,2460.0,M,,,,0000*25
$GPRMC,161345.000,A,4021.0262,N,10536.0542,W,,,171015,,,A*78
$GPGGA,161546.000,4020.9730,N,10536.0237,W,1,05,3.6,2457.0,M,,,,0000*24
$GPRMC,161546.000,A,4020.9730,N,10536.0237,W,,,171015,,,A*72
$GPGGA,161944.459,4020.9410,N,10535.9987,W,1,04,4.9,2471.0,M,,,,0000*24
$GPRMC,161944.459,A,4020.9410,N,10535.9987,W,,,171015,,,A*7F
$GPGGA,162328.508,4020.9388,N,10535.9918,W,1,04,5.0,2477.0,M,,,,0000*2C
$GPRMC,162328.508,A,4020.9388,N,10535.9918,W,,,171015,,,A*79
$GPGGA,162528.608,4020.9485,N,10535.9653,W,1,04,5.9,2464.0,M,,,,0000*28
$GPRMC,162528.608,A,4020.9485,N,10535.9653,W,,,171015,,,A*76
$GPGGA,162729.615,4020.9874,N,10535.8597,W,1,04,6.5,2472.0,M,,,,0000*27
$GPRMC,162729.615,A,4020.9874,N,10535.8597,W,,,171015,,,A*71
$GPGGA,162930.637,4020.9954,N,10535.7406,W,1,04,5.7,2456.0,M,,,,0000*23
$GPRMC,162930.637,A,4020.9954,N,10535.7406,W,,,171015,,,A*72
$GPGGA,163128.634,4021.0014,N,10535.7029,W,1,04,6.0,2426.0,M,,,,0000*2F
$GPRMC,163128.634,A,4021.0014,N,10535.7029,W,,,171015,,,A*7D
$GPGGA,163328.000,4020.9933,N,10535.6457,W,1,05,2.7,2438.0,M,,,,0000*29
$GPRMC,163328.000,A,4020.9933,N,10535.6457,W,,,171015,,,A*76
$GPGGA,163531.000,4020.9964,N,10535.5457,W,1,05,2.7,2449.0,M,,,,0000*20
$GPRMC,163531.000,A,4020.9964,N,10535.5457,W,,,171015,,,A*79
$GPGGA,163733.000,4020.9909,N,10535.4573,W,1,06,1.2,2451.0,M,,,,0000*21
$GPRMC,163733.000,A,4020.9909,N,10535.4573,W,,,171015,,,A*74
$GPGGA,163937.000,4020.9870,N,10535.3607,W,1,06,1.2,2462.0,M,,,,0000*23
$GPRMC,163937.000,A,4020.9870,N,10535.3607,W,,,171015,,,A*76
$GPGGA,164140.000,4020.9828,N,10535.2735,W,1,06,1.2,2473.0,M,,,,0000*20
$GPRMC,164140.000,A,4020.9828,N,10535.2735,W,,,171015,,,A*75
$GPGGA,164342.000,4020.9763,N,10535.2730,W,1,05,1.5,2464.0,M,,,,0000*27
$GPRMC,164342.000,A,4020.9763,N,10535.2730,W,,,171015,,,A*70
$GPGGA,164540.000,4020.9893,N,10535.2271,W,1,06,1.2,2461.0,M,,,,0000*22
$GPRMC,164540.000,A,4020.9893,N,10535.2271,W,,,171015,,,A*74
$GPGGA,164740.000,4020.9967,N,10535.1092,W,1,06,1.2,2465.0,M,,,,0000*22
$GPRMC,164740.000,A,4020.9967,N,10535.1092,W,,,171015,,,A*70
$GPGGA,164940.000,4020.9919,N,10534.9954,W,1,06,1.2,2447.0,M,,,,0000*2F
$GPRMC,164940.000,A,4020.9919,N,10534.9954,W,,,171015,,,A*7D
$GPGGA,165143.000,4020.9894,N,10534.9676,W,1,06,1.2,2454.0,M,,,,0000*2C
$GPRMC,165143.000,A,4020.9894,N,10534.9676,W,,,171015,,,A*7C
$GPGGA,165341.000,4020.9824,N,10534.9618,W,1,06,1.2,2446.0,M,,,,0000*2C
$GPRMC,165341.000,A,4020.9824,N,10534.9618,W,,,171015,,,A*7F
$GPGGA,165542.000,4020.9138,N,10534.8828,W,1,05,1.4,2461.0,M,,,,0000*21
$GPRMC,165542.000,A,4020.9138,N,10534.8828,W,,,171015,,,A*72
$GPGGA,165740.000,4020.8902,N,10534.8302,W,1,06,1.3,2466.0,M,,,,0000*21
$GPRMC,165740.000,A,4020.8902,N,10534.8302,W,,,171015,,,A*71
$GPGGA,165940.000,4020.8921,N,10534.8244,W,1,05,1.4,2456.0,M,,,,0000*2A
$GPRMC,165940.000,A,4020.8921,N,10534.8244,W,,,171015,,,A*7D
$GPGGA,170243.000,4020.8897,N,10534.8371,W,1,05,1.4,2450.0,M,,,,0000*2B
$GPRMC,170243.000,A,4020.8897,N,10534.8371,W,,,171015,,,A*7A
$GPGGA,170443.821,4020.8507,N,10534.8135,W,1,04,2.8,2457.0,M,,,,0000*29
$GPRMC,170443.821,A,4020.8507,N,10534.8135,W,,,171015,,,A*71
$GPGGA,170645.000,4020.8278,N,10534.9007,W,1,05,1.5,2408.0,M,,,,0000*2D
$GPRMC,170645.000,A,4020.8278,N,10534.9007,W,,,171015,,,A*70
$GPGGA,170844.000,4020.7656,N,10534.9310,W,1,05,1.5,2418.0,M,,,,0000*21
$GPRMC,170844.000,A,4020.7656,N,10534.9310,W,,,171015,,,A*7D
$GPGGA,171044.000,4020.7786,N,10534.8535,W,1,05,1.5,2411.0,M,,,,0000*2D
$GPRMC,171044.000,A,4020.7786,N,10534.8535,W,,,171015,,,A*78
$GPGGA,171246.000,4020.7924,N,10534.7533,W,1,05,1.5,2394.0,M,,,,0000*28
$GPRMC,171246.000,A,4020.7924,N,10534.7533,W,,,171015,,,A*77
$GPGGA,171446.000,4020.8354,N,10534.6556,W,1,05,1.5,2396.0,M,,,,0000*2C
$GPRMC,171446.000,A,4020.8354,N,10534.6556,W,,,171015,,,A*71
$GPGGA,171644.000,4020.8246,N,10534.6355,W,1,05,1.5,2380.0,M,,,,0000*2C
$GPRMC,171644.000,A,4020.8246,N,10534.6355,W,,,171015,,,A*76
$GPGGA,171853.000,4020.8537,N,10534.5326,W,1,05,1.6,2384.0,M,,,,0000*25
$GPRMC,171853.000,A,4020.8537,N,10534.5326,W,,,171015,,,A*78
$GPGGA,172056.000,4020.8910,N,10534.4367,W,1,06,1.5,2385.0,M,,,,0000*27
$GPRMC,172056.000,A,4020.8910,N,10534.4367,W,,,171015,,,A*7B
$GPGGA,172257.000,4020.9106,N,10534.3922,W,1,06,1.5,2370.0,M,,,,0000*2C
$GPRMC,172257.000,A,4020.9106,N,10534.3922,W,,,171015,,,A*7A
$GPGGA,172504.027,4020.9162,N,10534.3119,W,1,04,2.4,2369.0,M,,,,0000*22
$GPRMC,172504.027,A,4020.9162,N,10534.3119,W,,,171015,,,A*7C
$GPGGA,172704.000,4020.8511,N,10534.3191,W,1,05,1.6,2375.0,M,,,,0000*29
$GPRMC,172704.000,A,4020.8511,N,10534.3191,W,,,171015,,,A*7A
$GPGGA,172905.000,4020.7930,N,10534.3571,W,1,06,1.6,2393.0,M,,,,0000*27
$GPRMC,172905.000,A,4020.7930,N,10534.3571,W,,,171015,,,A*7F
$GPGGA,173104.000,4020.7377,N,10534.3208,W,1,07,1.5,2404.0,M,,,,0000*24
$GPRMC,173104.000,A,4020.7377,N,10534.3208,W,,,171015,,,A*77
$GPGGA,173304.000,4020.7311,N,10534.3304,W,1,06,1.6,2416.0,M,,,,0000*2A
$GPRMC,173304.000,A,4020.7311,N,10534.3304,W,,,171015,,,A*78
$GPGGA,173506.000,4020.7327,N,10534.3260,W,1,06,2.8,2428.0,M,,,,0000*28
$GPRMC,173506.000,A,4020.7327,N,10534.3260,W,,,171015,,,A*7A
$GPGGA,173817.000,4020.7346,N,10534.3454,W,1,05,1.7,2439.0,M,,,,0000*2C
$GPRMC,173817.000,A,4020.7346,N,10534.3454,W,,,171015,,,A*71
$GPGGA,174016.000,4020.7229,N,10534.3461,W,1,06,1.6,2466.0,M,,,,0000*24
$GPRMC,174016.000,A,4020.7229,N,10534.3461,W,,,171015,,,A*71
$GPGGA,174214.000,4020.6683,N,10534.2979,W,1,07,1.5,2430.0,M,,,,0000*25
$GPRMC,174214.000,A,4020.6683,N,10534.2979,W,,,171015,,,A*71
$GPGGA,174416.000,4020.5779,N,10534.2798,W,1,07,1.5,2431.0,M,,,,0000*26
$GPRMC,174416.000,A,4020.5779,N,10534.2798,W,,,171015,,,A*73
$GPGGA,174616.000,4020.4939,N,10534.2358,W,1,07,1.5,2448.0,M,,,,0000*29
$GPRMC,174616.000,A,4020.4939,N,10534.2358,W,,,171015,,,A*72
$GPGGA,174816.000,4020.4479,N,10534.1808,W,1,06,1.5,2434.0,M,,,,0000*29
$GPRMC,174816.000,A,4020.4479,N,10534.1808,W,,,171015,,,A*78
$GPGGA,175016.000,4020.4207,N,10534.1333,W,1,07,1.4,2475.0,M,,,,0000*29
$GPRMC,175016.000,A,4020.4207,N,10534.1333,W,,,171015,,,A*7D
$GPGGA,175218.000,4020.4102,N,10534.1502,W,1,05,2.2,2476.0,M,,,,0000*23
$GPRMC,175218.000,A,4020.4102,N,10534.1502,W,,,171015,,,A*73
$GPGGA,175431.964,4020.4430,N,10534.2745,W,1,04,1.8,3178.0,M,,,,0000*21
$GPRMC,175431.964,A,4020.4430,N,10534.2745,W,,,171015,,,A*73
$GPGGA,175711.953,4020.4550,N,10534.2559,W,1,04,1.7,2959.0,M,,,,0000*29
$GPRMC,175711.953,A,4020.4550,N,10534.2559,W,,,171015,,,A*7E
$GPGGA,175905.144,4020.4013,N,10534.4819,W,1,03,2.7,3935.0,M,,,,0000*2E
$GPRMC,175905.144,A,4020.4013,N,10534.4819,W,,,171015,,,A*76
$GPGGA,213217.312,4021.9987,N,10533.7105,W,1,04,9.5,2358.0,M,,,,0000*22
$GPRMC,213217.312,A,4021.9987,N,10533.7105,W,,,171015,,,A*74
$GPGGA,213815.009,4021.8296,N,10533.2134,W,1,04,14.3,2079.0,M,,,,0000*14
$GPRMC,213815.009,A,4021.8296,N,10533.2134,W,,,171015,,,A*78
$GPGGA,214005.000,4021.9911,N,10533.7170,W,1,05,1.8,2444.0,M,,,,0000*27
$GPRMC,214005.000,A,4021.9911,N,10533.7170,W,,,171015,,,A*7F
$GPGGA,214202.000,4021.9964,N,10533.7028,W,1,06,1.2,2390.0,M,,,,0000*2B
$GPRMC,214202.000,A,4021.9964,N,10533.7028,W,,,171015,,,A*74
$GPGGA,214408.000,4022.1566,N,10534.1890,W,1,05,3.5,2454.0,M,,,,0000*21
$GPRMC,214408.000,A,4022.1566,N,10534.1890,W,,,171015,,,A*77
$GPGGA,214757.000,4022.0006,N,10534.6121,W,1,06,1.2,2497.0,M,,,,0000*27
$GPRMC,214757.000,A,4022.0006,N,10534.6121,W,,,171015,,,A*78
$GPGGA,214958.000,4022.0075,N,10534.7586,W,1,05,1.2,2500.0,M,,,,0000*26
$GPRMC,214958.000,A,4022.0075,N,10534.7586,W,,,171015,,,A*75
$GPGGA,215200.083,4022.0301,N,10535.3226,W,1,04,17.8,2521.0,M,,,,0000*1D
$GPRMC,215200.083,A,4022.0301,N,10535.3226,W,,,171015,,,A*71
$GPGGA,215404.000,4022.2781,N,10535.3051,W,1,06,1.1,2571.0,M,,,,0000*21
$GPRMC,215404.000,A,4022.2781,N,10535.3051,W,,,171015,,,A*74
$GPGGA,215557.000,4022.7024,N,10535.8555,W,1,06,1.1,2627.0,M,,,,0000*21
$GPRMC,215557.000,A,4022.7024,N,10535.8555,W,,,171015,,,A*74
$GPGGA,215759.000,4023.1384,N,10536.3753,W,1,06,1.1,2693.0,M,,,,0000*20
$GPRMC,215759.000,A,4023.1384,N,10536.3753,W,,,171015,,,A*7A
$GPGGA,215957.000,4023.4489,N,10537.2215,W,1,06,1.1,2757.0,M,,,,0000*21
$GPRMC,215957.000,A,4023.4489,N,10537.2215,W,,,171015,,,A*72
$GPGGA,220159.000,4023.8173,N,10538.2388,W,1,05,1.6,2794.0,M,,,,0000*2C
$GPRMC,220159.000,A,4023.8173,N,10538.2388,W,,,171015,,,A*74
$GPGGA,220403.461,4023.8413,N,10538.7625,W,1,04,4.6,2787.0,M,,,,0000*27
$GPRMC,220403.461,A,4023.8413,N,10538.7625,W,,,171015,,,A*79
$GPGGA,220556.068,4023.4125,N,10537.9960,W,1,05,2.5,2938.0,M,,,,0000*26
$GPRMC,220556.068,A,4023.4125,N,10537.9960,W,,,171015,,,A*76
$GPGGA,220755.076,4023.5159,N,10538.1910,W,1,04,4.5,2969.0,M,,,,0000*21
$GPRMC,220755.076,A,4023.5159,N,10538.1910,W,,,171015,,,A*72
$GPGGA,221140.405,4023.1554,N,10539.8065,W,1,04,4.5,3198.0,M,,,,0000*2B
$GPRMC,221140.405,A,4023.1554,N,10539.8065,W,,,171015,,,A*7F
$GPGGA,221339.502,4023.5357,N,10540.2851,W,1,04,3.0,3383.0,M,,,,0000*21
$GPRMC,221339.502,A,4023.5357,N,10540.2851,W,,,171015,,,A*7F
$GPGGA,221539.000,4024.0191,N,10539.8039,W,1,06,1.1,3303.0,M,,,,0000*21
$GPRMC,221539.000,A,4024.0191,N,10539.8039,W,,,171015,,,A*76
$GPGGA,221739.000,4024.0229,N,10539.8008,W,1,06,1.1,3301.0,M,,,,0000*23
$GPRMC,221739.000,A,4024.0229,N,10539.8008,W,,,171015,,,A*76
$GPGGA,222108.000,4024.0256,N,10539.8002,W,1,06,1.1,3311.0,M,,,,0000*27
$GPRMC,222108.000,A,4024.0256,N,10539.8002,W,,,171015,,,A*73
$GPGGA,222312.000,4024.0210,N,10539.8044,W,1,06,1.1,3287.0,M,,,,0000*20
$GPRMC,222312.000,A,4024.0210,N,10539.8044,W,,,171015,,,A*7A
$GPGGA,222513.000,4024.1074,N,10540.1276,W,1,04,5.6,3332.0,M,,,,0000*2C
$GPRMC,222513.000,A,4024.1074,N,10540.1276,W,,,171015,,,A*78
$GPGGA,222805.000,4023.5555,N,10541.4664,W,1,05,1.5,3408.0,M,,,,0000*28
$GPRMC,222805.000,A,4023.5555,N,10541.4664,W,,,171015,,,A*74
$GPGGA,222956.000,4023.5883,N,10542.4822,W,1,06,1.1,3547.0,M,,,,0000*2B
$GPRMC,222956.000,A,4023.5883,N,10542.4822,W,,,171015,,,A*7A
$GPGGA,223157.000,4024.2894,N,10542.8418,W,1,05,1.4,3627.0,M,,,,0000*2F
$GPRMC,223157.000,A,4024.2894,N,10542.8418,W,,,171015,,,A*7D
$GPGGA,223419.000,4024.6908,N,10543.8652,W,1,05,1.4,3482.0,M,,,,0000*20
$GPRMC,223419.000,A,4024.6908,N,10543.8652,W,,,171015,,,A*7F
$GPGGA,223619.000,4024.7555,N,10544.0120,W,1,06,1.1,3696.0,M,,,,0000*2B
$GPRMC,223619.000,A,4024.7555,N,10544.0120,W,,,171015,,,A*75
$GPGGA,223821.000,4024.7565,N,10543.9719,W,1,06,1.1,3697.0,M,,,,0000*2E
$GPRMC,223821.000,A,4024.7565,N,10543.9719,W,,,171015,,,A*71
$GPGGA,224021.000,4024.7591,N,10543.8984,W,1,06,1.1,3715.0,M,,,,0000*2A
$GPRMC,224021.000,A,4024.7591,N,10543.8984,W,,,171015,,,A*7E
$GPGGA,224219.609,4024.7459,N,10543.8156,W,1,04,2.1,3754.0,M,,,,0000*2A
$GPRMC,224219.609,A,4024.7459,N,10543.8156,W,,,171015,,,A*7A
$GPGGA,224417.000,4024.7753,N,10543.7236,W,1,05,1.6,3743.0,M,,,,0000*2D
$GPRMC,224417.000,A,4024.7753,N,10543.7236,W,,,171015,,,A*7E
$GPGGA,224620.761,4024.7968,N,10543.6647,W,1,04,2.0,3790.0,M,,,,0000*24
$GPRMC,224620.761,A,4024.7968,N,10543.6647,W,,,171015,,,A*7D
$GPGGA,224822.768,4024.7902,N,10543.6060,W,1,04,2.1,3777.0,M,,,,0000*26
$GPRMC,224822.768,A,4024.7902,N,10543.6060,W,,,171015,,,A*77
$GPGGA,225040.417,4024.8419,N,10543.6248,W,1,04,2.1,3003.0,M,,,,0000*24
$GPRMC,225040.417,A,4024.8419,N,10543.6248,W,,,171015,,,A*71
$GPGGA,225244.627,4024.7855,N,10543.9026,W,1,03,3.4,3145.0,M,,,,0000*2D
$GPRMC,225244.627,A,4024.7855,N,10543.9026,W,,,171015,,,A*78
$GPGGA,225509.000,4024.7667,N,10543.7409,W,1,05,2.1,3750.0,M,,,,0000*28
$GPRMC,225509.000,A,4024.7667,N,10543.7409,W,,,171015,,,A*7D
$GPGGA,225701.000,4024.7521,N,10543.8189,W,1,05,2.1,3753.0,M,,,,0000*22
$GPRMC,225701.000,A,4024.7521,N,10543.8189,W,,,171015,,,A*74
$GPGGA,225901.000,4024.7689,N,10543.9198,W,1,05,2.1,3732.0,M,,,,0000*2B
$GPRMC,225901.000,A,4024.7689,N,10543.9198,W,,,171015,,,A*7A
$GPGGA,230101.000,4024.7655,N,10544.0090,W,1,05,2.1,3715.0,M,,,,0000*24
$GPRMC,230101.000,A,4024.7655,N,10544.0090,W,,,171015,,,A*70
$GPGGA,230359.000,4024.6935,N,10543.6089,W,1,05,2.1,3711.0,M,,,,0000*2E
$GPRMC,230359.000,A,4024.6935,N,10543.6089,W,,,171015,,,A*7E
$GPGGA,230600.781,4024.2574,N,10542.7029,W,1,04,2.2,3673.0,M,,,,0000*29
$GPRMC,230600.781,A,4024.2574,N,10542.7029,W,,,171015,,,A*7E
$GPGGA,230917.000,4023.7279,N,10542.6902,W,1,05,2.2,3600.0,M,,,,0000*22
$GPRMC,230917.000,A,4023.7279,N,10542.6902,W,,,171015,,,A*70
$GPGGA,231117.000,4023.7427,N,10542.7965,W,1,05,2.2,3601.0,M,,,,0000*27
$GPRMC,231117.000,A,4023.7427,N,10542.7965,W,,,171015,,,A*74
$GPGGA,231413.000,4023.7558,N,10542.8169,W,1,05,2.2,3597.0,M,,,,0000*28
$GPRMC,231413.000,A,4023.7558,N,10542.8169,W,,,171015,,,A*77
$GPGGA,231615.053,4023.7556,N,10542.8193,W,1,04,2.3,3590.0,M,,,,0000*26
$GPRMC,231615.053,A,4023.7556,N,10542.8193,W,,,171015,,,A*7E
$GPGGA,231814.000,4023.7625,N,10542.8378,W,1,05,2.2,3591.0,M,,,,0000*2E
$GPRMC,231814.000,A,4023.7625,N,10542.8378,W,,,171015,,,A*77
$GPGGA,232025.000,4023.7564,N,10542.8329,W,1,05,2.2,3593.0,M,,,,0000*27
$GPRMC,232025.000,A,4023.7564,N,10542.8329,W,,,171015,,,A*7C
$GPGGA,232217.000,4023.7637,N,10542.8370,W,1,05,2.2,3595.0,M,,,,0000*2B
$GPRMC,232217.000,A,4023.7637,N,10542.8370,W,,,171015,,,A*76
$GPGGA,232547.000,4023.7361,N,10542.7087,W,1,05,2.2,3591.0,M,,,,0000*2F
$GPRMC,232547.000,A,4023.7361,N,10542.7087,W,,,171015,,,A*76
$GPGGA,232750.000,4023.7418,N,10542.6693,W,1,05,2.2,3603.0,M,,,,0000*28
$GPRMC,232750.000,A,4023.7418,N,10542.6693,W,,,171015,,,A*79
$GPGGA,233056.964,4023.5738,N,10541.1754,W,1,03,3.0,3502.0,M,,,,0000*29
$GPRMC,233056.964,A,4023.5738,N,10541.1754,W,,,171015,,,A*7F
$GPGGA,233259.973,4024.0723,N,10540.2224,W,1,03,5.2,3373.0,M,,,,0000*2E
$GPRMC,233259.973,A,4024.0723,N,10540.2224,W,,,171015,,,A*7C
$GPGGA,233506.013,4023.7432,N,10540.3089,W,1,04,2.9,3261.0,M,,,,0000*22
$GPRMC,233506.013,A,4023.7432,N,10540.3089,W,,,171015,,,A*79
$GPGGA,233913.102,4023.4487,N,10539.0206,W,1,04,3.2,3081.0,M,,,,0000*28
$GPRMC,233913.102,A,4023.4487,N,10539.0206,W,,,171015,,,A*75
$GPGGA,234105.111,4023.5250,N,10538.0805,W,1,04,7.3,3005.0,M,,,,0000*2E
$GPRMC,234105.111,A,4023.5250,N,10538.0805,W,,,171015,,,A*7A
$GPGGA,234258.763,4023.2774,N,10537.8501,W,1,04,3.5,2966.0,M,,,,0000*23
$GPRMC,234258.763,A,4023.2774,N,10537.8501,W,,,171015,,,A*78
$GPGGA,234602.290,4023.2848,N,10537.8444,W,1,03,6.1,2959.0,M,,,,0000*2B
$GPRMC,234602.290,A,4023.2848,N,10537.8444,W,,,171015,,,A*7A
$GPGGA,234835.020,4023.2862,N,10537.8488,W,1,04,4.1,2958.0,M,,,,0000*24
$GPRMC,234835.020,A,4023.2862,N,10537.8488,W,,,171015,,,A*71
$GPGGA,235119.975,4023.2508,N,10537.8740,W,1,03,6.7,2957.0,M,,,,0000*21
$GPRMC,235119.975,A,4023.2508,N,10537.8740,W,,,171015,,,A*78
$GPGGA,235347.000,4023.2442,N,10537.8730,W,1,05,3.1,2950.0,M,,,,0000*29
$GPRMC,235347.000,A,4023.2442,N,10537.8730,W,,,171015,,,A*72
$GPGGA,235547.000,4023.2646,N,10537.8617,W,1,05,3.2,2948.0,M,,,,0000*27
$GPRMC,235547.000,A,4023.2646,N,10537.8617,W,,,171015,,,A*76
$GPGGA,235923.029,4023.8082,N,10538.3870,W,1,04,5.9,2963.0,M,,,,0000*28
$GPRMC,235923.029,A,4023.8082,N,10538.3870,W,,,171015,,,A*7C
$GPGGA,000122.000,4023.9811,N,10538.6704,W,1,05,1.9,2837.0,M,,,,0000*21
$GPRMC,000122.000,A,4023.9811,N,10538.6704,W,,,181015,,,A*7F
$GPGGA,000500.814,4023.3223,N,10536.9991,W,1,04,5.6,2765.0,M,,,,0000*28
$GPRMC,000500.814,A,4023.3223,N,10536.9991,W,,,181015,,,A*74
$GPGGA,000658.000,4022.8399,N,10536.2703,W,1,05,1.8,2707.0,M,,,,0000*20
$GPRMC,000658.000,A,4022.8399,N,10536.2703,W,,,181015,,,A*73
$GPGGA,000855.000,4022.7066,N,10535.8652,W,1,05,1.8,2653.0,M,,,,0000*23
$GPRMC,000855.000,A,4022.7066,N,10535.8652,W,,,181015,,,A*70
$GPGGA,001055.000,4022.3188,N,10535.4314,W,1,05,1.8,2578.0,M,,,,0000*2E
$GPRMC,001055.000,A,4022.3188,N,10535.4314,W,,,181015,,,A*77
$GPGGA,001256.000,4022.0913,N,10535.5282,W,1,05,1.7,2533.0,M,,,,0000*29
$GPRMC,001256.000,A,4022.0913,N,10535.5282,W,,,181015,,,A*70
$GPGGA,001456.992,4022.0592,N,10534.2822,W,1,04,4.3,2453.0,M,,,,0000*29
$GPRMC,001456.992,A,4022.0592,N,10534.2822,W,,,181015,,,A*77
$GPGGA,001655.000,4021.8610,N,10533.1214,W,1,05,1.7,2381.0,M,,,,0000*2B
$GPRMC,001655.000,A,4021.8610,N,10533.1214,W,,,181015,,,A*7D
$GPGGA,001856.000,4021.3025,N,10533.6863,W,1,05,1.7,2377.0,M,,,,0000*29
$GPRMC,001856.000,A,4021.3025,N,10533.6863,W,,,181015,,,A*76
$GPGGA,002059.000,4020.4927,N,10534.0157,W,1,05,1.6,2389.0,M,,,,0000*2F
$GPRMC,002059.000,A,4020.4927,N,10534.0157,W,,,181015,,,A*70
$GPGGA,002257.000,4020.4006,N,10534.1184,W,1,07,1.5,2447.0,M,,,,0000*22
$GPRMC,002257.000,A,4020.4006,N,10534.1184,W,,,181015,,,A*79
$GPGGA,002700.047,4020.3939,N,10534.1274,W,1,03,1.9,2435.0,M,,,,0000*25
$GPRMC,002700.047,A,4020.3939,N,10534.1274,W,,,181015,,,A*73
$GPGGA,002902.023,4020.3914,N,10534.1154,W,1,04,6.2,2440.0,M,,,,0000*2C
$GPRMC,002902.023,A,4020.3914,N,10534.1154,W,,,181015,,,A*73
$GPGGA,003059.000,4020.4027,N,10534.1130,W,1,05,3.8,2438.0,M,,,,0000*26
$GPRMC,003059.000,A,4020.4027,N,10534.1130,W,,,181015,,,A*78
$GPGGA,003300.076,4020.4105,N,10534.1175,W,1,04,6.1,2475.0,M,,,,0000*2C
$GPRMC,003300.076,A,4020.4105,N,10534.1175,W,,,181015,,,A*76
$GPGGA,003634.088,4020.3863,N,10534.1243,W,1,04,3.1,2467.0,M,,,,0000*21
$GPRMC,003634.088,A,4020.3863,N,10534.1243,W,,,181015,,,A*7D
$GPGGA,004000.000,4020.4342,N,10534.0924,W,1,05,11.6,2439.0,M,,,,0000*1D
$GPRMC,004000.000,A,4020.4342,N,10534.0924,W,,,181015,,,A*7F
$GPGGA,004212.135,4020.5451,N,10534.0409,W,1,04,12.3,2527.0,M,,,,0000*14
$GPRMC,004212.135,A,4020.5451,N,10534.0409,W,,,181015,,,A*7F
$GPGGA,004634.152,4020.5322,N,10534.0392,W,1,04,13.9,2490.0,M,,,,0000*15
$GPRMC,004634.152,A,4020.5322,N,10534.0392,W,,,181015,,,A*78
$GPGGA,005336.000,4020.4951,N,10534.0640,W,1,05,16.3,2481.0,M,,,,0000*1E
$GPRMC,005336.000,A,4020.4951,N,10534.0640,W,,,181015,,,A*7D
$GPGGA,005658.000,4020.5914,N,10533.9977,W,1,05,17.2,2453.0,M,,,,0000*19
$GPRMC,005658.000,A,4020.5914,N,10533.9977,W,,,181015,,,A*75
$GPGGA,010016.000,4020.4834,N,10534.0704,W,1,05,17.9,2465.0,M,,,,0000*19
$GPRMC,010016.000,A,4020.4834,N,10534.0704,W,,,181015,,,A*7B
$GPGGA,010245.243,4020.3726,N,10534.1243,W,1,04,7.3,2417.0,M,,,,0000*2B
$GPRMC,010245.243,A,4020.3726,N,10534.1243,W,,,181015,,,A*76
$GPGGA,010616.000,4020.4085,N,10534.1079,W,1,05,6.5,2440.0,M,,,,0000*2A
$GPRMC,010616.000,A,4020.4085,N,10534.1079,W,,,181015,,,A*73
$GPGGA,010817.275,4020.4366,N,10534.0920,W,1,05,6.0,2467.0,M,,,,0000*2F
$GPRMC,010817.275,A,4020.4366,N,10534.0920,W,,,181015,,,A*76
$GPGGA,011022.286,4020.4853,N,10534.0648,W,1,04,19.3,2445.0,M,,,,0000*1C
$GPRMC,011022.286,A,4020.4853,N,10534.0648,W,,,181015,,,A*79
$GPGGA,011215.470,4020.3986,N,10534.1164,W,1,04,18.8,2451.0,M,,,,0000*1C
$GPRMC,011215.470,A,4020.3986,N,10534.1164,W,,,181015,,,A*76
$GPGGA,011415.000,4020.4554,N,10534.0774,W,1,05,5.5,2465.0,M,,,,0000*2C
$GPRMC,011415.000,A,4020.4554,N,10534.0774,W,,,181015,,,A*71
$GPGGA,011614.000,4020.3838,N,10534.1209,W,1,06,5.1,2443.0,M,,,,0000*22
$GPRMC,011614.000,A,4020.3838,N,10534.1209,W,,,181015,,,A*7C
$GPGGA,011815.018,4020.3840,N,10534.1081,W,1,05,5.3,2409.0,M,,,,0000*26
$GPRMC,011815.018,A,4020.3840,N,10534.1081,W,,,181015,,,A*77
$GPGGA,012121.000,4020.5010,N,10534.0552,W,1,05,15.4,2441.0,M,,,,0000*19
$GPRMC,012121.000,A,4020.5010,N,10534.0552,W,,,181015,,,A*72
$GPGGA,012534.350,4020.5490,N,10534.0281,W,1,04,15.6,2415.0,M,,,,0000*18
$GPRMC,012534.350,A,4020.5490,N,10534.0281,W,,,181015,,,A*71
$GPGGA,012914.000,4020.4825,N,10534.0693,W,1,05,13.8,2404.0,M,,,,0000*1D
$GPRMC,012914.000,A,4020.4825,N,10534.0693,W,,,181015,,,A*7D
$GPGGA,013130.000,4020.4657,N,10534.0763,W,1,05,13.3,2415.0,M,,,,0000*1C
$GPRMC,013130.000,A,4020.4657,N,10534.0763,W,,,181015,,,A*77
$GPGGA,013359.000,4020.5278,N,10534.0418,W,1,05,12.9,2388.0,M,,,,0000*1E
$GPRMC,013359.000,A,4020.5278,N,10534.0418,W,,,181015,,,A*7D
$GPGGA,013718.000,4020.5099,N,10534.0550,W,1,05,12.3,2419.0,M,,,,0000*1A
$GPRMC,013718.000,A,4020.5099,N,10534.0550,W,,,181015,,,A*7C
$GPGGA,013918.017,4020.4391,N,10534.0952,W,1,04,24.2,2417.0,M,,,,0000*1D
$GPRMC,013918.017,A,4020.4391,N,10534.0952,W,,,181015,,,A*70
$GPGGA,014120.000,4020.4753,N,10534.0735,W,1,05,11.7,2427.0,M,,,,0000*1B
$GPRMC,014120.000,A,4020.4753,N,10534.0735,W,,,181015,,,A*77
$GPGGA,014355.000,4020.3755,N,10534.1287,W,1,06,3.5,2440.0,M,,,,0000*24
$GPRMC,014355.000,A,4020.3755,N,10534.1287,W,,,181015,,,A*7B
$GPGGA,014713.000,4020.3913,N,10534.1194,W,1,06,3.4,2433.0,M,,,,0000*2A
$GPRMC,014713.000,A,4020.3913,N,10534.1194,W,,,181015,,,A*70
$GPGGA,014913.000,4020.4076,N,10534.1096,W,1,05,3.6,2438.0,M,,,,0000*20
$GPRMC,014913.000,A,4020.4076,N,10534.1096,W,,,181015,,,A*70
$GPGGA,015113.000,4020.3864,N,10534.1192,W,1,06,3.3,2421.0,M,,,,0000*2E
$GPRMC,015113.000,A,4020.3864,N,10534.1192,W,,,181015,,,A*70
$GPGGA,015316.000,4020.3848,N,10534.1242,W,1,06,3.3,2434.0,M,,,,0000*2D
$GPRMC,015316.000,A,4020.3848,N,10534.1242,W,,,181015,,,A*77
$GPGGA,015615.505,4020.3954,N,10534.1178,W,1,04,4.4,2461.0,M,,,,0000*2F
$GPRMC,015615.505,A,4020.3954,N,10534.1178,W,,,181015,,,A*77
$GPGGA,015816.519,4020.3954,N,10534.1124,W,1,04,3.8,2458.0,M,,,,0000*27
$GPRMC,015816.519,A,4020.3954,N,10534.1124,W,,,181015,,,A*7E
$GPGGA,020016.000,4020.4003,N,10534.1080,W,1,04,3.7,2455.0,M,,,,0000*25
$GPRMC,020016.000,A,4020.4003,N,10534.1080,W,,,181015,,,A*7E
$GPGGA,020213.000,4020.3908,N,10534.1197,W,1,05,3.3,2449.0,M,,,,0000*28
$GPRMC,020213.000,A,4020.3908,N,10534.1197,W,,,181015,,,A*7B
$GPGGA,020412.000,4020.3998,N,10534.1113,W,1,05,3.2,2459.0,M,,,,0000*2A
$GPRMC,020412.000,A,4020.3998,N,10534.1113,W,,,181015,,,A*79
$GPGGA,020617.599,4020.4018,N,10534.1124,W,1,04,3.6,2455.0,M,,,,0000*23
$GPRMC,020617.599,A,4020.4018,N,10534.1124,W,,,181015,,,A*79
$GPGGA,020816.610,4020.3839,N,10534.1328,W,1,04,3.9,2388.0,M,,,,0000*24
$GPRMC,020816.610,A,4020.3839,N,10534.1328,W,,,181015,,,A*76
$GPGGA,021015.605,4020.3861,N,10534.1177,W,1,05,3.2,2434.0,M,,,,0000*25
$GPRMC,021015.605,A,4020.3861,N,10534.1177,W,,,181015,,,A*7D
$GPGGA,021213.000,4020.3912,N,10534.1165,W,1,05,3.1,2448.0,M,,,,0000*2C
$GPRMC,021213.000,A,4020.3912,N,10534.1165,W,,,181015,,,A*7C
$GPGGA,021430.637,4020.4085,N,10534.1116,W,1,04,9.9,2430.0,M,,,,0000*21
$GPRMC,021430.637,A,4020.4085,N,10534.1116,W,,,181015,,,A*7D
$GPGGA,021620.000,4020.4082,N,10534.1008,W,1,06,1.4,2464.0,M,,,,0000*2F
$GPRMC,021620.000,A,4020.4082,N,10534.1008,W,,,181015,,,A*75
$GPGGA,021814.000,4020.4012,N,10534.1144,W,1,06,1.8,2384.0,M,,,,0000*23
$GPRMC,021814.000,A,4020.4012,N,10534.1144,W,,,181015,,,A*7C
$GPGGA,022013.000,4020.4053,N,10534.1120,W,1,07,1.7,2394.0,M,,,,0000*27
$GPRMC,022013.000,A,4020.4053,N,10534.1120,W,,,181015,,,A*77
$GPGGA,022213.000,4020.4038,N,10534.1132,W,1,06,2.6,2409.0,M,,,,0000*2B
$GPRMC,022213.000,A,4020.4038,N,10534.1132,W,,,181015,,,A*7B
$GPGGA,022416.000,4020.4117,N,10534.1147,W,1,06,2.5,2387.0,M,,,,0000*24
$GPRMC,022416.000,A,4020.4117,N,10534.1147,W,,,181015,,,A*76
$GPGGA,022717.000,4020.4290,N,10534.1225,W,1,07,1.6,2432.0,M,,,,0000*25
$GPRMC,022717.000,A,4020.4290,N,10534.1225,W,,,181015,,,A*7F
$GPGGA,022916.000,4020.4272,N,10534.1145,W,1,07,1.6,2442.0,M,,,,0000*24
$GPRMC,022916.000,A,4020.4272,N,10534.1145,W,,,181015,,,A*79
$GPGGA,023118.000,4020.4292,N,10534.1062,W,1,06,1.6,2439.0,M,,,,0000*24
$GPRMC,023118.000,A,4020.4292,N,10534.1062,W,,,181015,,,A*74
$GPGGA,023320.000,4020.4190,N,10534.1162,W,1,07,1.5,2431.0,M,,,,0000*27
$GPRMC,023320.000,A,4020.4190,N,10534.1162,W,,,181015,,,A*7D
$GPGGA,023602.000,4020.4259,N,10534.1124,W,1,07,1.4,2454.0,M,,,,0000*24
$GPRMC,023602.000,A,4020.4259,N,10534.1124,W,,,181015,,,A*7C
$GPGGA,023804.000,4020.4196,N,10534.1132,W,1,07,1.4,2421.0,M,,,,0000*29
$GPRMC,023804.000,A,4020.4196,N,10534.1132,W,,,181015,,,A*73
$GPGGA,024004.000,4020.4251,N,10534.1162,W,1,07,1.3,2425.0,M,,,,0000*28
$GPRMC,024004.000,A,4020.4251,N,10534.1162,W,,,181015,,,A*71
$GPGGA,024204.000,4020.4273,N,10534.1194,W,1,07,1.3,2426.0,M,,,,0000*20
$GPRMC,024204.000,A,4020.4273,N,10534.1194,W,,,181015,,,A*7A
$GPGGA,024402.000,4020.4293,N,10534.1035,W,1,06,1.7,2403.0,M,,,,0000*26
$GPRMC,024402.000,A,4020.4293,N,10534.1035,W,,,181015,,,A*7E
$GPGGA,024602.000,4020.4316,N,10534.1085,W,1,06,1.6,2395.0,M,,,,0000*2A
$GPRMC,024602.000,A,4020.4316,N,10534.1085,W,,,181015,,,A*7B
$GPGGA,024804.000,4020.4182,N,10534.1139,W,1,07,1.2,2434.0,M,,,,0000*22
$GPRMC,024804.000,A,4020.4182,N,10534.1139,W,,,181015,,,A*7A
$GPGGA,025002.000,4020.4326,N,10534.1068,W,1,07,1.2,2411.0,M,,,,0000*23
$GPRMC,025002.000,A,4020.4326,N,10534.1068,W,,,181015,,,A*7C
$GPGGA,025203.000,4020.4242,N,10534.1130,W,1,07,1.2,2401.0,M,,,,0000*2E
$GPRMC,025203.000,A,4020.4242,N,10534.1130,W,,,181015,,,A*70
$GPGGA,025404.000,4020.4313,N,10534.1249,W,1,06,1.9,2439.0,M,,,,0000*26
$GPRMC,025404.000,A,4020.4313,N,10534.1249,W,,,181015,,,A*79
$GPGGA,025603.000,4020.4361,N,10534.1128,W,1,06,1.5,2406.0,M,,,,0000*22
$GPRMC,025603.000,A,4020.4361,N,10534.1128,W,,,181015,,,A*7D
$GPGGA,025803.791,4020.4222,N,10534.1268,W,1,05,4.0,2455.0,M,,,,0000*27
$GPRMC,025803.791,A,4020.4222,N,10534.1268,W,,,181015,,,A*7D
$GPGGA,030004.000,4020.4287,N,10534.1039,W,1,05,1.7,2390.0,M,,,,0000*26
$GPRMC,030004.000,A,4020.4287,N,10534.1039,W,,,181015,,,A*70
$GPGGA,030204.000,4020.4310,N,10534.1097,W,1,06,1.5,2421.0,M,,,,0000*23
$GPRMC,030204.000,A,4020.4310,N,10534.1097,W,,,181015,,,A*79
$GPGGA,030406.000,4020.4309,N,10534.1056,W,1,05,3.8,2424.0,M,,,,0000*2B
$GPRMC,030406.000,A,4020.4309,N,10534.1056,W,,,181015,,,A*78
$GPGGA,030708.927,4020.4151,N,10534.1102,W,1,05,1.9,2385.0,M,,,,0000*2A
$GPRMC,030708.927,A,4020.4151,N,10534.1102,W,,,181015,,,A*76
$GPGGA,030903.000,4020.4005,N,10534.1177,W,1,06,1.5,2438.0,M,,,,0000*2F
$GPRMC,030903.000,A,4020.4005,N,10534.1177,W,,,181015,,,A*7D
$GPGGA,031108.948,4020.4145,N,10534.0904,W,1,04,1.9,2659.0,M,,,,0000*2B
$GPRMC,031108.948,A,4020.4145,N,10534.0904,W,,,181015,,,A*72
$GPGGA,031306.959,4020.3862,N,10534.1243,W,1,04,3.2,2425.0,M,,,,0000*25
$GPRMC,031306.959,A,4020.3862,N,10534.1243,W,,,181015,,,A*7C
$GPGGA,031506.993,4020.4108,N,10534.1184,W,1,04,1.7,2426.0,M,,,,0000*2B
$GPRMC,031506.993,A,4020.4108,N,10534.1184,W,,,181015,,,A*76
$GPGGA,031713.000,4020.4145,N,10534.1148,W,1,05,1.5,2413.0,M,,,,0000*22
$GPRMC,031713.000,A,4020.4145,N,10534.1148,W,,,181015,,,A*7A
$GPGGA,031905.925,4020.3810,N,10534.1075,W,1,04,3.7,2553.0,M,,,,0000*20
$GPRMC,031905.925,A,4020.3810,N,10534.1075,W,,,181015,,,A*7C
$GPGGA,032105.030,4020.3940,N,10534.1303,W,1,03,3.5,2366.0,M,,,,0000*25
$GPRMC,032105.030,A,4020.3940,N,10534.1303,W,,,181015,,,A*7C
$GPGGA,032316.040,4020.4205,N,10534.1328,W,1,03,2.9,2366.0,M,,,,0000*2B
$GPRMC,032316.040,A,4020.4205,N,10534.1328,W,,,181015,,,A*7F
$GPGGA,032750.082,4020.4048,N,10534.1155,W,1,04,3.6,2472.0,M,,,,0000*2B
$GPRMC,032750.082,A,4020.4048,N,10534.1155,W,,,181015,,,A*74
$GPGGA,033027.954,4020.4204,N,10534.1200,W,1,03,1.8,2364.0,M,,,,0000*2D
$GPRMC,033027.954,A,4020.4204,N,10534.1200,W,,,181015,,,A*79
$GPGGA,033231.000,4020.4228,N,10534.1197,W,1,05,1.7,2370.0,M,,,,0000*2F
$GPRMC,033231.000,A,4020.4228,N,10534.1197,W,,,181015,,,A*77
$GPGGA,033608.000,4020.4132,N,10534.1199,W,1,05,3.6,2418.0,M,,,,0000*2D
$GPRMC,033608.000,A,4020.4132,N,10534.1199,W,,,181015,,,A*7F
$GPGGA,033806.000,4020.4009,N,10534.1218,W,1,06,1.7,2406.0,M,,,,0000*21
$GPRMC,033806.000,A,4020.4009,N,10534.1218,W,,,181015,,,A*7C
$GPGGA,034007.000,4020.4182,N,10534.1231,W,1,05,1.8,2409.0,M,,,,0000*25
$GPRMC,034007.000,A,4020.4182,N,10534.1231,W,,,181015,,,A*7B
$GPGGA,034202.000,4020.4168,N,10534.1154,W,1,05,1.8,2400.0,M,,,,0000*2F
$GPRMC,034202.000,A,4020.4168,N,10534.1154,W,,,181015,,,A*78
$GPGGA,034408.009,4020.4192,N,10534.1193,W,1,04,1.9,2410.0,M,,,,0000*25
$GPRMC,034408.009,A,4020.4192,N,10534.1193,W,,,181015,,,A*73
$GPGGA,034607.036,4020.4328,N,10534.1120,W,1,04,2.3,2394.0,M,,,,0000*2D
$GPRMC,034607.036,A,4020.4328,N,10534.1120,W,,,181015,,,A*79
$GPGGA,034805.047,4020.4194,N,10534.1109,W,1,04,2.4,2385.0,M,,,,0000*2E
$GPRMC,034805.047,A,4020.4194,N,10534.1109,W,,,181015,,,A*7D
$GPGGA,035001.065,4020.4194,N,10534.0921,W,1,04,5.4,2359.0,M,,,,0000*26
$GPRMC,035001.065,A,4020.4194,N,10534.0921,W,,,181015,,,A*73
$GPGGA,035440.072,4020.4494,N,10534.0397,W,1,04,5.5,2240.0,M,,,,0000*2B
$GPRMC,035440.072,A,4020.4494,N,10534.0397,W,,,181015,,,A*76
$GPGGA,035650.085,4020.4253,N,10534.1219,W,1,04,5.6,2402.0,M,,,,0000*28
$GPRMC,035650.085,A,4020.4253,N,10534.1219,W,,,181015,,,A*76
$GPGGA,035843.864,4020.4154,N,10534.1892,W,1,04,5.6,2554.0,M,,,,0000*2C
$GPRMC,035843.864,A,4020.4154,N,10534.1892,W,,,181015,,,A*70
$GPGGA,040112.939,4020.4170,N,10534.1521,W,1,04,5.7,2403.0,M,,,,0000*2B
$GPRMC,040112.939,A,4020.4170,N,10534.1521,W,,,181015,,,A*75
$GPGGA,040311.632,4020.4226,N,10534.1065,W,1,04,2.2,2403.0,M,,,,0000*29
$GPRMC,040311.632,A,4020.4226,N,10534.1065,W,,,181015,,,A*75
$GPGGA,040608.963,4020.4153,N,10534.1185,W,1,05,2.7,2391.0,M,,,,0000*29
$GPRMC,040608.963,A,4020.4153,N,10534.1185,W,,,181015,,,A*7D
$GPGGA,040843.672,4020.4064,N,10534.1305,W,1,04,3.1,2425.0,M,,,,0000*26
$GPRMC,040843.672,A,4020.4064,N,10534.1305,W,,,181015,,,A*7C
$GPGGA,041043.000,4020.4287,N,10534.1050,W,1,05,2.9,2379.0,M,,,,0000*26
$GPRMC,041043.000,A,4020.4287,N,10534.1050,W,,,181015,,,A*7A
$GPGGA,041241.993,4020.4732,N,10534.0961,W,1,03,5.8,2295.0,M,,,,0000*27
$GPRMC,041241.993,A,4020.4732,N,10534.0961,W,,,181015,,,A*78
$GPGGA,041442.000,4020.4461,N,10534.0955,W,1,05,3.1,2338.0,M,,,,0000*2C
$GPRMC,041442.000,A,4020.4461,N,10534.0955,W,,,181015,,,A*7C
$GPGGA,041653.017,4020.4274,N,10534.0879,W,1,04,2.5,2368.0,M,,,,0000*24
$GPRMC,041653.017,A,4020.4274,N,10534.0879,W,,,181015,,,A*75
$GPGGA,041851.705,4020.4234,N,10534.1024,W,1,04,3.8,2377.0,M,,,,0000*2B
$GPRMC,041851.705,A,4020.4234,N,10534.1024,W,,,181015,,,A*78
$GPGGA,042053.689,4020.4361,N,10534.0504,W,1,03,5.0,2410.0,M,,,,0000*2F
$GPRMC,042053.689,A,4020.4361,N,10534.0504,W,,,181015,,,A*73
$GPGGA,042244.719,4020.4065,N,10534.1093,W,1,04,2.6,2470.0,M,,,,0000*2E
$GPRMC,042244.719,A,4020.4065,N,10534.1093,W,,,181015,,,A*72
$GPGGA,042620.050,4020.4230,N,10534.1087,W,1,03,3.1,2410.0,M,,,,0000*22
$GPRMC,042620.050,A,4020.4230,N,10534.1087,W,,,181015,,,A*79
$GPGGA,043024.077,4020.4284,N,10534.1097,W,1,04,4.4,2394.0,M,,,,0000*24
$GPRMC,043024.077,A,4020.4284,N,10534.1097,W,,,181015,,,A*71
