@CanonGPS/ver1.0/wgs-84/Canon EOS 6D/242020004950/fe98
$GPGGA,175136.000,3947.1431,N,10453.5996,W,1,05,2.0,1576.0,M,,,,0000*26
$GPRMC,175136.000,A,3947.1431,N,10453.5996,W,,,211015,,,A*73
$GPGGA,175510.210,3947.1410,N,10453.5915,W,1,04,2.1,1505.0,M,,,,0000*29
$GPRMC,175510.210,A,3947.1410,N,10453.5915,W,,,211015,,,A*78
$GPGGA,175710.000,3947.1480,N,10453.6052,W,1,05,1.9,1558.0,M,,,,0000*2A
$GPRMC,175710.000,A,3947.1480,N,10453.6052,W,,,211015,,,A*79
$GPGGA,175911.000,3947.1530,N,10453.6009,W,1,05,1.9,1554.0,M,,,,0000*2D
$GPRMC,175911.000,A,3947.1530,N,10453.6009,W,,,211015,,,A*72
$GPGGA,180109.000,3947.1467,N,10453.6026,W,1,05,1.9,1560.0,M,,,,0000*2F
$GPRMC,180109.000,A,3947.1467,N,10453.6026,W,,,211015,,,A*77
$GPGGA,180309.000,3947.1405,N,10453.6206,W,1,05,1.9,1624.0,M,,,,0000*2A
$GPRMC,180309.000,A,3947.1405,N,10453.6206,W,,,211015,,,A*71
$GPGGA,180511.000,3947.1466,N,10453.6155,W,1,05,1.9,1572.0,M,,,,0000*25
$GPRMC,180511.000,A,3947.1466,N,10453.6155,W,,,211015,,,A*7E
$GPGGA,180711.264,3947.1352,N,10453.6102,W,1,04,2.7,1605.0,M,,,,0000*2A
$GPRMC,180711.264,A,3947.1352,N,10453.6102,W,,,211015,,,A*7E
$GPGGA,180910.276,3947.1349,N,10453.6294,W,1,05,1.9,1633.0,M,,,,0000*29
$GPRMC,180910.276,A,3947.1349,N,10453.6294,W,,,211015,,,A*74
$GPGGA,181111.284,3947.1402,N,10453.6183,W,1,04,1.9,1628.0,M,,,,0000*2A
$GPRMC,181111.284,A,3947.1402,N,10453.6183,W,,,211015,,,A*7C
$GPGGA,181310.293,3947.1447,N,10453.5782,W,1,04,4.9,1651.0,M,,,,0000*21
$GPRMC,181310.293,A,3947.1447,N,10453.5782,W,,,211015,,,A*7C
$GPGGA,181512.000,3947.1514,N,10453.6089,W,1,06,1.6,1537.0,M,,,,0000*2E
$GPRMC,181512.000,A,3947.1514,N,10453.6089,W,,,211015,,,A*78
$GPGGA,181711.000,3947.1414,N,10453.6179,W,1,06,1.6,1594.0,M,,,,0000*29
$GPRMC,181711.000,A,3947.1414,N,10453.6179,W,,,211015,,,A*76
$GPGGA,181910.000,3947.1483,N,10453.6123,W,1,05,1.6,1569.0,M,,,,0000*26
$GPRMC,181910.000,A,3947.1483,N,10453.6123,W,,,211015,,,A*78
$GPGGA,182112.000,3947.1458,N,10453.6170,W,1,05,1.7,1598.0,M,,,,0000*20
$GPRMC,182112.000,A,3947.1458,N,10453.6170,W,,,211015,,,A*71
$GPGGA,182410.000,3947.1395,N,10453.6224,W,1,06,1.7,1584.0,M,,,,0000*2D
$GPRMC,182410.000,A,3947.1395,N,10453.6224,W,,,211015,,,A*72
$GPGGA,182610.000,3947.1441,N,10453.6149,W,1,06,1.7,1563.0,M,,,,0000*20
$GPRMC,182610.000,A,3947.1441,N,10453.6149,W,,,211015,,,A*76
$GPGGA,182812.000,3947.1485,N,10453.6043,W,1,05,1.9,1497.0,M,,,,0000*28
$GPRMC,182812.000,A,3947.1485,N,10453.6043,W,,,211015,,,A*79
$GPGGA,183012.000,3947.1497,N,10453.6304,W,1,05,2.5,1566.0,M,,,,0000*22
$GPRMC,183012.000,A,3947.1497,N,10453.6304,W,,,211015,,,A*73
$GPGGA,183211.000,3947.1489,N,10453.6253,W,1,05,1.7,1589.0,M,,,,0000*2F
$GPRMC,183211.000,A,3947.1489,N,10453.6253,W,,,211015,,,A*7E
$GPGGA,183410.000,3947.1421,N,10453.6243,W,1,06,1.9,1580.0,M,,,,0000*2F
$GPRMC,183410.000,A,3947.1421,N,10453.6243,W,,,211015,,,A*7A
$GPGGA,183613.000,3947.1378,N,10453.6277,W,1,06,1.6,1629.0,M,,,,0000*2D
$GPRMC,183613.000,A,3947.1378,N,10453.6277,W,,,211015,,,A*77
$GPGGA,183811.000,3947.1322,N,10453.6144,W,1,07,1.1,1616.0,M,,,,0000*27
$GPRMC,183811.000,A,3947.1322,N,10453.6144,W,,,211015,,,A*77
$GPGGA,184015.000,3947.1214,N,10453.6232,W,1,05,1.6,1660.0,M,,,,0000*2E
$GPRMC,184015.000,A,3947.1214,N,10453.6232,W,,,211015,,,A*7A
$GPGGA,184213.000,3947.1296,N,10453.6074,W,1,06,1.2,1617.0,M,,,,0000*27
$GPRMC,184213.000,A,3947.1296,N,10453.6074,W,,,211015,,,A*74
$GPGGA,184408.000,3947.1250,N,10453.6737,W,1,08,1.0,1569.0,M,,,,0000*27
$GPRMC,184408.000,A,3947.1250,N,10453.6737,W,,,211015,,,A*72
$GPGGA,184610.000,3947.3249,N,10453.8748,W,1,08,1.0,1605.0,M,,,,0000*29
$GPRMC,184610.000,A,3947.3249,N,10453.8748,W,,,211015,,,A*75
$GPGGA,184810.000,3947.8375,N,10454.0025,W,1,08,1.0,1624.0,M,,,,0000*22
$GPRMC,184810.000,A,3947.8375,N,10454.0025,W,,,211015,,,A*7D
$GPGGA,185010.000,3947.8577,N,10453.9921,W,1,08,1.0,1599.0,M,,,,0000*29
$GPRMC,185010.000,A,3947.8577,N,10453.9921,W,,,211015,,,A*73
$GPGGA,214158.000,3947.8922,N,10454.0088,W,1,07,1.1,1454.0,M,,,,0000*29
$GPRMC,214158.000,A,3947.8922,N,10454.0088,W,,,211015,,,A*7D
$GPGGA,214405.011,3947.6523,N,10454.2371,W,1,03,2.9,1425.0,M,,,,0000*29
$GPRMC,214405.011,A,3947.6523,N,10454.2371,W,,,211015,,,A*74
$GPGGA,214604.000,3947.1675,N,10454.0506,W,1,05,1.3,1526.0,M,,,,0000*24
$GPRMC,214604.000,A,3947.1675,N,10454.0506,W,,,211015,,,A*74
$GPGGA,214806.000,3946.3439,N,10454.1982,W,1,05,4.0,1439.0,M,,,,0000*29
$GPRMC,214806.000,A,3946.3439,N,10454.1982,W,,,211015,,,A*70
$GPGGA,215005.088,3946.4945,N,10454.1757,W,1,03,2.5,1378.0,M,,,,0000*23
$GPRMC,215005.088,A,3946.4945,N,10454.1757,W,,,211015,,,A*7D
$GPGGA,215212.102,3946.4655,N,10454.1506,W,1,04,9.6,1528.0,M,,,,0000*20
$GPRMC,215212.102,A,3946.4655,N,10454.1506,W,,,211015,,,A*72
