@CanonGPS/ver1.0/wgs-84/Canon EOS 6D/242020004950/fe98
$GPGGA,140701.381,3948.2884,N,10453.6145,W,1,03,3.5,21.0,M,,,,0000*27
$GPRMC,140701.381,A,3948.2884,N,10453.6145,W,,,231015,,,A*74
$GPGGA,142307.666,3947.9135,N,10453.9922,W,1,04,1.6,1617.0,M,,,,0000*2E
$GPRMC,142307.666,A,3947.9135,N,10453.9922,W,,,231015,,,A*79
$GPGGA,142628.646,3947.9134,N,10453.9853,W,1,04,1.6,1610.0,M,,,,0000*25
$GPRMC,142628.646,A,3947.9134,N,10453.9853,W,,,231015,,,A*75
$GPGGA,142827.653,3947.9138,N,10453.9900,W,1,04,1.6,1630.0,M,,,,0000*29
$GPRMC,142827.653,A,3947.9138,N,10453.9900,W,,,231015,,,A*7B
$GPGGA,143028.683,3947.9089,N,10453.9825,W,1,04,1.6,1651.0,M,,,,0000*28
$GPRMC,143028.683,A,3947.9089,N,10453.9825,W,,,231015,,,A*7D
$GPGGA,143229.692,3947.9131,N,10453.9919,W,1,04,1.6,1619.0,M,,,,0000*2B
$GPRMC,143229.692,A,3947.9131,N,10453.9919,W,,,231015,,,A*72
$GPGGA,143430.702,3947.9148,N,10453.9944,W,1,04,1.6,1640.0,M,,,,0000*27
$GPRMC,143430.702,A,3947.9148,N,10453.9944,W,,,231015,,,A*72
$GPGGA,143628.709,3947.9148,N,10453.9938,W,1,04,1.6,1640.0,M,,,,0000*2C
$GPRMC,143628.709,A,3947.9148,N,10453.9938,W,,,231015,,,A*79
$GPGGA,143841.717,3947.9119,N,10453.9850,W,1,04,1.6,1640.0,M,,,,0000*29
$GPRMC,143841.717,A,3947.9119,N,10453.9850,W,,,231015,,,A*7C
$GPGGA,144231.734,3947.9119,N,10453.9982,W,1,04,1.6,1653.0,M,,,,0000*2E
$GPRMC,144231.734,A,3947.9119,N,10453.9982,W,,,231015,,,A*79
$GPGGA,144431.742,3947.9038,N,10453.9778,W,1,04,1.6,1691.0,M,,,,0000*2E
$GPRMC,144431.742,A,3947.9038,N,10453.9778,W,,,231015,,,A*77
$GPGGA,144621.537,3947.8986,N,10453.9112,W,1,04,1.6,1648.0,M,,,,0000*2E
$GPRMC,144621.537,A,3947.8986,N,10453.9112,W,,,231015,,,A*73
$GPGGA,144826.855,3947.8962,N,10453.9101,W,1,04,1.6,1659.0,M,,,,0000*26
$GPRMC,144826.855,A,3947.8962,N,10453.9101,W,,,231015,,,A*7B
$GPGGA,145034.176,3947.9041,N,10453.9052,W,1,03,2.3,1649.0,M,,,,0000*2A
$GPRMC,145034.176,A,3947.9041,N,10453.9052,W,,,231015,,,A*77
$GPGGA,145236.176,3947.9021,N,10453.9064,W,1,04,1.6,1651.0,M,,,,0000*21
$GPRMC,145236.176,A,3947.9021,N,10453.9064,W,,,231015,,,A*74
$GPGGA,145426.014,3947.8798,N,10453.9146,W,1,05,1.5,1652.0,M,,,,0000*27
$GPRMC,145426.014,A,3947.8798,N,10453.9146,W,,,231015,,,A*73
$GPGGA,145651.000,3947.8839,N,10453.9115,W,1,05,1.5,1634.0,M,,,,0000*22
$GPRMC,145651.000,A,3947.8839,N,10453.9115,W,,,231015,,,A*76
$GPGGA,145851.000,3947.8863,N,10453.9066,W,1,06,1.1,1673.0,M,,,,0000*22
$GPRMC,145851.000,A,3947.8863,N,10453.9066,W,,,231015,,,A*72
$GPGGA,150052.000,3947.8900,N,10453.9088,W,1,06,1.1,1682.0,M,,,,0000*27
$GPRMC,150052.000,A,3947.8900,N,10453.9088,W,,,231015,,,A*79
$GPGGA,150255.000,3947.8880,N,10453.8988,W,1,05,1.4,1714.0,M,,,,0000*2B
$GPRMC,150255.000,A,3947.8880,N,10453.8988,W,,,231015,,,A*7D
$GPGGA,150455.906,3947.8902,N,10453.9045,W,1,04,1.8,1696.0,M,,,,0000*26
$GPRMC,150455.906,A,3947.8902,N,10453.9045,W,,,231015,,,A*76
$GPGGA,150653.914,3947.8902,N,10453.9030,W,1,05,1.4,1711.0,M,,,,0000*20
$GPRMC,150653.914,A,3947.8902,N,10453.9030,W,,,231015,,,A*73
$GPGGA,150855.000,3947.8684,N,10453.9094,W,1,06,1.1,1688.0,M,,,,0000*2C
$GPRMC,150855.000,A,3947.8684,N,10453.9094,W,,,231015,,,A*78
$GPGGA,151055.000,3947.8771,N,10453.9123,W,1,06,1.1,1644.0,M,,,,0000*23
$GPRMC,151055.000,A,3947.8771,N,10453.9123,W,,,231015,,,A*77
$GPGGA,151257.000,3947.8776,N,10453.9145,W,1,06,1.1,1654.0,M,,,,0000*25
$GPRMC,151257.000,A,3947.8776,N,10453.9145,W,,,231015,,,A*70
$GPGGA,151456.000,3947.8788,N,10453.9138,W,1,06,1.1,1648.0,M,,,,0000*24
$GPRMC,151456.000,A,3947.8788,N,10453.9138,W,,,231015,,,A*7C
$GPGGA,151656.000,3947.8791,N,10453.9160,W,1,06,1.1,1671.0,M,,,,0000*29
$GPRMC,151656.000,A,3947.8791,N,10453.9160,W,,,231015,,,A*7B
$GPGGA,152003.000,3947.8761,N,10453.9194,W,1,06,1.2,1639.0,M,,,,0000*27
$GPRMC,152003.000,A,3947.8761,N,10453.9194,W,,,231015,,,A*7A
$GPGGA,152201.000,3947.8811,N,10453.9721,W,1,05,1.2,1633.0,M,,,,0000*2E
$GPRMC,152201.000,A,3947.8811,N,10453.9721,W,,,231015,,,A*7A
$GPGGA,152552.926,3947.9091,N,10453.9670,W,1,04,3.4,1713.0,M,,,,0000*20
$GPRMC,152552.926,A,3947.9091,N,10453.9670,W,,,231015,,,A*72
$GPGGA,152744.028,3947.9131,N,10453.9814,W,1,04,3.6,1710.0,M,,,,0000*24
$GPRMC,152744.028,A,3947.9131,N,10453.9814,W,,,231015,,,A*77
$GPGGA,152952.049,3947.9149,N,10453.9870,W,1,04,3.9,1702.0,M,,,,0000*2B
$GPRMC,152952.049,A,3947.9149,N,10453.9870,W,,,231015,,,A*74
$GPGGA,153144.309,3947.9256,N,10453.9682,W,1,04,4.1,1747.0,M,,,,0000*22
$GPRMC,153144.309,A,3947.9256,N,10453.9682,W,,,231015,,,A*73
$GPGGA,153338.039,3947.8970,N,10453.9899,W,1,04,4.4,1660.0,M,,,,0000*20
$GPRMC,153338.039,A,3947.8970,N,10453.9899,W,,,231015,,,A*70
$GPGGA,153647.970,3947.9145,N,10453.9719,W,1,04,5.0,1715.0,M,,,,0000*27
$GPRMC,153647.970,A,3947.9145,N,10453.9719,W,,,231015,,,A*71
$GPGGA,153936.000,3947.8913,N,10454.0012,W,1,05,1.3,1605.0,M,,,,0000*2E
$GPRMC,153936.000,A,3947.8913,N,10454.0012,W,,,231015,,,A*7E
$GPGGA,161823.000,3947.8781,N,10454.0109,W,1,06,1.4,1573.0,M,,,,0000*22
$GPRMC,161823.000,A,3947.8781,N,10454.0109,W,,,231015,,,A*74
$GPGGA,162029.000,3947.8541,N,10454.0235,W,1,06,1.5,1562.0,M,,,,0000*20
$GPRMC,162029.000,A,3947.8541,N,10454.0235,W,,,231015,,,A*77
$GPGGA,162219.000,3947.8177,N,10454.0653,W,1,06,1.5,1429.0,M,,,,0000*2A
$GPRMC,162219.000,A,3947.8177,N,10454.0653,W,,,231015,,,A*73
$GPGGA,162540.103,3947.0073,N,10454.0369,W,1,06,1.5,1610.0,M,,,,0000*2A
$GPRMC,162540.103,A,3947.0073,N,10454.0369,W,,,231015,,,A*7B
$GPGGA,162928.985,3946.2996,N,10453.9761,W,1,04,5.1,1045.0,M,,,,0000*29
$GPRMC,162928.985,A,3946.2996,N,10453.9761,W,,,231015,,,A*7C
$GPGGA,163338.008,3946.4059,N,10454.2117,W,1,04,3.6,1480.0,M,,,,0000*24
$GPRMC,163338.008,A,3946.4059,N,10454.2117,W,,,231015,,,A*7D
$GPGGA,171010.165,3946.3892,N,10453.9644,W,1,04,3.6,1587.0,M,,,,0000*27
$GPRMC,171010.165,A,3946.3892,N,10453.9644,W,,,231015,,,A*78
$GPGGA,171206.000,3946.3951,N,10453.9924,W,1,05,3.2,1588.0,M,,,,0000*2D
$GPRMC,171206.000,A,3946.3951,N,10453.9924,W,,,231015,,,A*78
$GPGGA,171408.097,3946.4327,N,10454.0471,W,1,06,1.1,1594.0,M,,,,0000*2B
$GPRMC,171408.097,A,3946.4327,N,10454.0471,W,,,231015,,,A*71
$GPGGA,171613.000,3946.4155,N,10454.0649,W,1,06,1.1,1543.0,M,,,,0000*29
$GPRMC,171613.000,A,3946.4155,N,10454.0649,W,,,231015,,,A*79
$GPGGA,171822.000,3946.4046,N,10454.1130,W,1,05,1.8,1520.0,M,,,,0000*21
$GPRMC,171822.000,A,3946.4046,N,10454.1130,W,,,231015,,,A*7E
$GPGGA,172022.320,3946.4166,N,10454.0681,W,1,05,1.8,1496.0,M,,,,0000*28
$GPRMC,172022.320,A,3946.4166,N,10454.0681,W,,,231015,,,A*7B
$GPGGA,172242.000,3946.4160,N,10454.0441,W,1,05,1.8,1510.0,M,,,,0000*2A
$GPRMC,172242.000,A,3946.4160,N,10454.0441,W,,,231015,,,A*76
$GPGGA,172639.000,3946.4077,N,10454.0440,W,1,05,1.7,1523.0,M,,,,0000*2B
$GPRMC,172639.000,A,3946.4077,N,10454.0440,W,,,231015,,,A*78
$GPGGA,172853.366,3946.3556,N,10453.9242,W,1,04,5.3,1521.0,M,,,,0000*22
$GPRMC,172853.366,A,3946.3556,N,10453.9242,W,,,231015,,,A*72
$GPGGA,173110.087,3946.4068,N,10454.1532,W,1,04,2.2,1453.0,M,,,,0000*23
$GPRMC,173110.087,A,3946.4068,N,10454.1532,W,,,231015,,,A*71
$GPGGA,173305.071,3946.4102,N,10454.0529,W,1,05,1.7,1504.0,M,,,,0000*2E
$GPRMC,173305.071,A,3946.4102,N,10454.0529,W,,,231015,,,A*78
$GPGGA,173500.376,3946.3609,N,10454.1712,W,1,04,2.3,1361.0,M,,,,0000*2A
$GPRMC,173500.376,A,3946.3609,N,10454.1712,W,,,231015,,,A*7F
$GPGGA,173659.988,3946.4265,N,10454.0961,W,1,04,2.3,1465.0,M,,,,0000*2F
$GPRMC,173659.988,A,3946.4265,N,10454.0961,W,,,231015,,,A*79
