@CanonGPS/ver1.0/wgs-84/Canon EOS 6D/242020004950/fe98
$GPGGA,195130.000,4020.4142,N,10534.1232,W,1,07,1.0,2444.0,M,,,,0000*26
$GPRMC,195130.000,A,4020.4142,N,10534.1232,W,,,161015,,,A*75
$GPGGA,200056.000,4020.4121,N,10534.1214,W,1,08,1.0,2439.0,M,,,,0000*2C
$GPRMC,200056.000,A,4020.4121,N,10534.1214,W,,,161015,,,A*7A
$GPGGA,200631.000,4020.4158,N,10534.1073,W,1,08,1.0,2444.0,M,,,,0000*2C
$GPRMC,200631.000,A,4020.4158,N,10534.1073,W,,,161015,,,A*70
$GPGGA,202131.000,4020.4244,N,10534.1116,W,1,07,1.2,2451.0,M,,,,0000*2C
$GPRMC,202131.000,A,4020.4244,N,10534.1116,W,,,161015,,,A*79
$GPGGA,203121.000,4020.4111,N,10534.1102,W,1,07,1.4,2465.0,M,,,,0000*2B
$GPRMC,203121.000,A,4020.4111,N,10534.1102,W,,,161015,,,A*7F
$GPGGA,203619.000,4020.4189,N,10534.1105,W,1,08,1.2,2479.0,M,,,,0000*25
$GPRMC,203619.000,A,4020.4189,N,10534.1105,W,,,161015,,,A*75
$GPGGA,204119.000,4020.4130,N,10534.1097,W,1,08,1.2,2463.0,M,,,,0000*26
$GPRMC,204119.000,A,4020.4130,N,10534.1097,W,,,161015,,,A*7D
$GPGGA,204627.000,4020.3918,N,10534.0929,W,1,05,1.8,2460.0,M,,,,0000*20
$GPRMC,204627.000,A,4020.3918,N,10534.0929,W,,,161015,,,A*7F
$GPGGA,205128.274,4020.4045,N,10534.1144,W,1,03,3.2,2501.0,M,,,,0000*24
$GPRMC,205128.274,A,4020.4045,N,10534.1144,W,,,161015,,,A*73
$GPGGA,205722.000,4020.4011,N,10534.1122,W,1,07,1.4,2467.0,M,,,,0000*29
$GPRMC,205722.000,A,4020.4011,N,10534.1122,W,,,161015,,,A*7F
$GPGGA,210220.000,4020.4092,N,10534.1081,W,1,08,1.3,2456.0,M,,,,0000*23
$GPRMC,210220.000,A,4020.4092,N,10534.1081,W,,,161015,,,A*7F
$GPGGA,210719.000,4020.4285,N,10534.4073,W,1,09,1.1,2451.0,M,,,,0000*24
$GPRMC,210719.000,A,4020.4285,N,10534.4073,W,,,161015,,,A*7C
$GPGGA,211223.000,4020.4328,N,10534.4512,W,1,08,1.2,2467.0,M,,,,0000*2A
$GPRMC,211223.000,A,4020.4328,N,10534.4512,W,,,161015,,,A*75
$GPGGA,211719.000,4020.4697,N,10534.5820,W,1,08,1.2,2453.0,M,,,,0000*2D
$GPRMC,211719.000,A,4020.4697,N,10534.5820,W,,,161015,,,A*75
$GPGGA,212224.000,4020.4613,N,10534.6135,W,1,10,1.0,2457.0,M,,,,0000*28
$GPRMC,212224.000,A,4020.4613,N,10534.6135,W,,,161015,,,A*7F
$GPGGA,212821.000,4020.4555,N,10534.6956,W,1,09,1.1,2454.0,M,,,,0000*21
$GPRMC,212821.000,A,4020.4555,N,10534.6956,W,,,161015,,,A*7C
$GPGGA,213320.000,4020.4429,N,10534.7556,W,1,09,1.1,2465.0,M,,,,0000*2F
$GPRMC,213320.000,A,4020.4429,N,10534.7556,W,,,161015,,,A*70
$GPGGA,213819.000,4020.4514,N,10534.7906,W,1,09,1.0,2460.0,M,,,,0000*2C
$GPRMC,213819.000,A,4020.4514,N,10534.7906,W,,,161015,,,A*77
$GPGGA,214319.000,4020.4924,N,10534.8516,W,1,09,1.0,2469.0,M,,,,0000*24
$GPRMC,214319.000,A,4020.4924,N,10534.8516,W,,,161015,,,A*76
$GPGGA,214821.000,4020.4622,N,10534.8334,W,1,10,0.8,2494.0,M,,,,0000*28
$GPRMC,214821.000,A,4020.4622,N,10534.8334,W,,,161015,,,A*79
$GPGGA,215324.000,4020.4177,N,10534.7845,W,1,10,0.8,2453.0,M,,,,0000*29
$GPRMC,215324.000,A,4020.4177,N,10534.7845,W,,,161015,,,A*73
$GPGGA,215922.000,4020.4116,N,10534.7082,W,1,10,0.8,2486.0,M,,,,0000*29
$GPRMC,215922.000,A,4020.4116,N,10534.7082,W,,,161015,,,A*7B
$GPGGA,220422.000,4020.3816,N,10534.6826,W,1,09,0.9,2477.0,M,,,,0000*2C
$GPRMC,220422.000,A,4020.3816,N,10534.6826,W,,,161015,,,A*79
$GPGGA,220919.000,4020.3820,N,10534.6778,W,1,09,0.9,2484.0,M,,,,0000*24
$GPRMC,220919.000,A,4020.3820,N,10534.6778,W,,,161015,,,A*7D
$GPGGA,221422.000,4020.3475,N,10534.6486,W,1,08,0.9,2476.0,M,,,,0000*22
$GPRMC,221422.000,A,4020.3475,N,10534.6486,W,,,161015,,,A*77
$GPGGA,221921.000,4020.3003,N,10534.5972,W,1,10,0.8,2503.0,M,,,,0000*27
$GPRMC,221921.000,A,4020.3003,N,10534.5972,W,,,161015,,,A*79
$GPGGA,222411.613,4020.2743,N,10534.5431,W,1,04,5.3,2484.0,M,,,,0000*23
$GPRMC,222411.613,A,4020.2743,N,10534.5431,W,,,161015,,,A*78
$GPGGA,223059.000,4020.2493,N,10534.6056,W,1,10,0.8,2501.0,M,,,,0000*21
$GPRMC,223059.000,A,4020.2493,N,10534.6056,W,,,161015,,,A*7D
$GPGGA,224022.000,4020.1916,N,10534.3879,W,1,10,0.9,2472.0,M,,,,0000*2D
$GPRMC,224022.000,A,4020.1916,N,10534.3879,W,,,161015,,,A*75
$GPGGA,224521.000,4020.2035,N,10534.3145,W,1,10,0.9,2486.0,M,,,,0000*2D
$GPRMC,224521.000,A,4020.2035,N,10534.3145,W,,,161015,,,A*7E
$GPGGA,225024.000,4020.3107,N,10534.4548,W,1,09,0.9,2488.0,M,,,,0000*25
$GPRMC,225024.000,A,4020.3107,N,10534.4548,W,,,161015,,,A*70
$GPGGA,225515.892,4020.2258,N,10534.2529,W,1,03,6.4,2452.0,M,,,,0000*2E
$GPRMC,225515.892,A,4020.2258,N,10534.2529,W,,,161015,,,A*7D
$GPGGA,230127.000,4020.4247,N,10534.1197,W,1,08,1.0,2462.0,M,,,,0000*2D
$GPRMC,230127.000,A,4020.4247,N,10534.1197,W,,,161015,,,A*75
$GPGGA,230627.000,4020.4247,N,10534.1300,W,1,09,1.0,2442.0,M,,,,0000*25
$GPRMC,230627.000,A,4020.4247,N,10534.1300,W,,,161015,,,A*7E
$GPGGA,231132.000,4020.5449,N,10534.1940,W,1,07,1.2,2471.0,M,,,,0000*2C
$GPRMC,231132.000,A,4020.5449,N,10534.1940,W,,,161015,,,A*7B
$GPGGA,231633.000,4021.7078,N,10533.2351,W,1,08,1.2,2387.0,M,,,,0000*20
$GPRMC,231633.000,A,4021.7078,N,10533.2351,W,,,161015,,,A*76
$GPGGA,232127.000,4021.7012,N,10533.2292,W,1,09,1.1,2356.0,M,,,,0000*2D
$GPRMC,232127.000,A,4021.7012,N,10533.2292,W,,,161015,,,A*75
$GPGGA,232617.824,4021.7023,N,10533.2255,W,1,04,12.0,2368.0,M,,,,0000*1D
$GPRMC,232617.824,A,4021.7023,N,10533.2255,W,,,161015,,,A*76
$GPGGA,233228.000,4021.6963,N,10533.2288,W,1,07,1.5,2357.0,M,,,,0000*2E
$GPRMC,233228.000,A,4021.6963,N,10533.2288,W,,,161015,,,A*7D
$GPGGA,233728.000,4021.6927,N,10533.2320,W,1,09,1.1,2341.0,M,,,,0000*25
$GPRMC,233728.000,A,4021.6927,N,10533.2320,W,,,161015,,,A*7B
$GPGGA,234229.000,4021.6912,N,10533.2329,W,1,08,1.2,2348.0,M,,,,0000*22
$GPRMC,234229.000,A,4021.6912,N,10533.2329,W,,,161015,,,A*77
$GPGGA,234727.000,4021.6879,N,10533.2313,W,1,07,1.3,2360.0,M,,,,0000*28
$GPRMC,234727.000,A,4021.6879,N,10533.2313,W,,,161015,,,A*79
$GPGGA,235227.000,4021.6915,N,10533.2309,W,1,06,1.4,2373.0,M,,,,0000*28
$GPRMC,235227.000,A,4021.6915,N,10533.2309,W,,,161015,,,A*7D
$GPGGA,235729.000,4021.6993,N,10533.2276,W,1,06,1.3,2415.0,M,,,,0000*24
$GPRMC,235729.000,A,4021.6993,N,10533.2276,W,,,161015,,,A*71
$GPGGA,000329.000,4021.7005,N,10533.2281,W,1,07,1.2,2352.0,M,,,,0000*2F
$GPRMC,000329.000,A,4021.7005,N,10533.2281,W,,,171015,,,A*7F
$GPGGA,000829.000,4021.6955,N,10533.2314,W,1,06,1.4,2348.0,M,,,,0000*28
$GPRMC,000829.000,A,4021.6955,N,10533.2314,W,,,171015,,,A*74
$GPGGA,001326.000,4021.6909,N,10533.2253,W,1,07,1.2,2352.0,M,,,,0000*2A
$GPRMC,001326.000,A,4021.6909,N,10533.2253,W,,,171015,,,A*7A
$GPGGA,001829.000,4021.7050,N,10533.2248,W,1,07,1.2,2349.0,M,,,,0000*2A
$GPRMC,001829.000,A,4021.7050,N,10533.2248,W,,,171015,,,A*70
$GPGGA,002328.000,4021.6960,N,10533.2298,W,1,07,1.2,2352.0,M,,,,0000*2F
$GPRMC,002328.000,A,4021.6960,N,10533.2298,W,,,171015,,,A*7F
$GPGGA,002832.000,4021.6951,N,10533.2279,W,1,07,1.2,2350.0,M,,,,0000*20
$GPRMC,002832.000,A,4021.6951,N,10533.2279,W,,,171015,,,A*72
$GPGGA,003426.000,4021.6912,N,10533.2306,W,1,07,1.1,2372.0,M,,,,0000*25
$GPRMC,003426.000,A,4021.6912,N,10533.2306,W,,,171015,,,A*74
$GPGGA,003932.000,4021.6931,N,10533.2262,W,1,05,2.4,2355.0,M,,,,0000*2E
$GPRMC,003932.000,A,4021.6931,N,10533.2262,W,,,171015,,,A*7E
$GPGGA,004426.000,4021.6939,N,10533.2338,W,1,08,1.0,2348.0,M,,,,0000*21
$GPRMC,004426.000,A,4021.6939,N,10533.2338,W,,,171015,,,A*77
$GPGGA,004929.000,4021.8600,N,10532.6389,W,1,10,0.8,2344.0,M,,,,0000*2B
$GPRMC,004929.000,A,4021.8600,N,10532.6389,W,,,171015,,,A*71
$GPGGA,005430.000,4022.6021,N,10531.2339,W,1,08,1.2,2306.0,M,,,,0000*2F
$GPRMC,005430.000,A,4022.6021,N,10531.2339,W,,,171015,,,A*71
$GPGGA,005930.000,4023.0116,N,10531.0595,W,1,10,0.8,2334.0,M,,,,0000*21
$GPRMC,005930.000,A,4023.0116,N,10531.0595,W,,,171015,,,A*7C
$GPGGA,010528.000,4023.0082,N,10531.0604,W,1,11,0.8,2345.0,M,,,,0000*20
$GPRMC,010528.000,A,4023.0082,N,10531.0604,W,,,171015,,,A*7A
$GPGGA,011032.000,4023.0084,N,10531.0570,W,1,10,0.8,2344.0,M,,,,0000*29
$GPRMC,011032.000,A,4023.0084,N,10531.0570,W,,,171015,,,A*73
$GPGGA,011526.000,4023.0099,N,10531.0596,W,1,09,0.8,2365.0,M,,,,0000*26
$GPRMC,011526.000,A,4023.0099,N,10531.0596,W,,,171015,,,A*77
$GPGGA,012026.000,4023.0107,N,10531.0409,W,1,11,0.8,2357.0,M,,,,0000*29
$GPRMC,012026.000,A,4023.0107,N,10531.0409,W,,,171015,,,A*70
$GPGGA,012530.000,4023.0022,N,10531.0579,W,1,10,0.9,2351.0,M,,,,0000*2D
$GPRMC,012530.000,A,4023.0022,N,10531.0579,W,,,171015,,,A*72
$GPGGA,013032.000,4023.0103,N,10531.0545,W,1,09,0.8,2343.0,M,,,,0000*2C
$GPRMC,013032.000,A,4023.0103,N,10531.0545,W,,,171015,,,A*79
$GPGGA,013630.000,4023.0117,N,10531.0628,W,1,09,0.9,2339.0,M,,,,0000*29
$GPRMC,013630.000,A,4023.0117,N,10531.0628,W,,,171015,,,A*70
$GPGGA,014130.000,4023.0142,N,10531.0602,W,1,11,0.8,2337.0,M,,,,0000*27
$GPRMC,014130.000,A,4023.0142,N,10531.0602,W,,,171015,,,A*78
$GPGGA,014629.000,4023.0105,N,10531.0583,W,1,11,0.8,2337.0,M,,,,0000*21
$GPRMC,014629.000,A,4023.0105,N,10531.0583,W,,,171015,,,A*7E
$GPGGA,015126.000,4023.0178,N,10531.0532,W,1,10,0.9,2325.0,M,,,,0000*2B
$GPRMC,015126.000,A,4023.0178,N,10531.0532,W,,,171015,,,A*77
$GPGGA,015630.000,4023.0133,N,10531.0583,W,1,07,1.1,2321.0,M,,,,0000*25
$GPRMC,015630.000,A,4023.0133,N,10531.0583,W,,,171015,,,A*72
$GPGGA,020133.000,4023.0134,N,10531.0628,W,1,09,1.1,2346.0,M,,,,0000*2D
$GPRMC,020133.000,A,4023.0134,N,10531.0628,W,,,171015,,,A*75
$GPGGA,020730.000,4022.5607,N,10531.4210,W,1,09,1.0,2311.0,M,,,,0000*23
$GPRMC,020730.000,A,4022.5607,N,10531.4210,W,,,171015,,,A*78
$GPGGA,021232.000,4021.1169,N,10533.8950,W,1,06,1.4,2379.0,M,,,,0000*29
$GPRMC,021232.000,A,4021.1169,N,10533.8950,W,,,171015,,,A*77
$GPGGA,021731.000,4020.4169,N,10534.1162,W,1,06,1.8,2456.0,M,,,,0000*2A
$GPRMC,021731.000,A,4020.4169,N,10534.1162,W,,,171015,,,A*72
$GPGGA,022235.000,4020.4043,N,10534.1207,W,1,06,1.4,2429.0,M,,,,0000*25
$GPRMC,022235.000,A,4020.4043,N,10534.1207,W,,,171015,,,A*79
$GPGGA,022738.000,4020.4187,N,10534.1130,W,1,05,3.0,2490.0,M,,,,0000*24
$GPRMC,022738.000,A,4020.4187,N,10534.1130,W,,,171015,,,A*7F
$GPGGA,023244.000,4020.4053,N,10534.1245,W,1,05,2.8,2453.0,M,,,,0000*24
$GPRMC,023244.000,A,4020.4053,N,10534.1245,W,,,171015,,,A*79
$GPGGA,023837.871,4020.3992,N,10534.1189,W,1,04,3.2,2430.0,M,,,,0000*2B
$GPRMC,023837.871,A,4020.3992,N,10534.1189,W,,,171015,,,A*79
$GPGGA,024346.000,4020.3987,N,10534.1144,W,1,05,2.2,2444.0,M,,,,0000*29
$GPRMC,024346.000,A,4020.3987,N,10534.1144,W,,,171015,,,A*78
$GPGGA,024925.000,4020.4081,N,10534.1219,W,1,05,1.6,2428.0,M,,,,0000*28
$GPRMC,024925.000,A,4020.4081,N,10534.1219,W,,,171015,,,A*74
$GPGGA,025849.000,4020.3887,N,10534.1139,W,1,05,1.6,2444.0,M,,,,0000*20
$GPRMC,025849.000,A,4020.3887,N,10534.1139,W,,,171015,,,A*76
$GPGGA,030411.929,4020.4007,N,10534.1098,W,1,04,3.6,2454.0,M,,,,0000*28
$GPRMC,030411.929,A,4020.4007,N,10534.1098,W,,,171015,,,A*7C
$GPGGA,030943.000,4020.4009,N,10534.1216,W,1,05,1.5,2437.0,M,,,,0000*2F
$GPRMC,030943.000,A,4020.4009,N,10534.1216,W,,,171015,,,A*7E
$GPGGA,031442.000,4020.4036,N,10534.1454,W,1,05,1.5,2384.0,M,,,,0000*21
$GPRMC,031442.000,A,4020.4036,N,10534.1454,W,,,171015,,,A*7F
$GPGGA,031957.000,4020.4105,N,10534.1325,W,1,06,1.3,2309.0,M,,,,0000*28
$GPRMC,031957.000,A,4020.4105,N,10534.1325,W,,,171015,,,A*76
$GPGGA,032606.053,4020.4126,N,10534.1242,W,1,03,6.7,2432.0,M,,,,0000*2E
$GPRMC,032606.053,A,4020.4126,N,10534.1242,W,,,171015,,,A*79
$GPGGA,033443.000,4020.4140,N,10534.1289,W,1,05,1.6,2374.0,M,,,,0000*28
$GPRMC,033443.000,A,4020.4140,N,10534.1289,W,,,171015,,,A*7A
$GPGGA,034041.272,4020.4765,N,10534.1144,W,1,04,3.0,2269.0,M,,,,0000*25
$GPRMC,034041.272,A,4020.4765,N,10534.1144,W,,,171015,,,A*7F
$GPGGA,034540.000,4020.4352,N,10534.1406,W,1,05,1.5,2235.0,M,,,,0000*2A
$GPRMC,034540.000,A,4020.4352,N,10534.1406,W,,,171015,,,A*7F
$GPGGA,035043.000,4020.4644,N,10534.1191,W,1,05,1.5,2270.0,M,,,,0000*25
$GPRMC,035043.000,A,4020.4644,N,10534.1191,W,,,171015,,,A*71
$GPGGA,035544.000,4020.4265,N,10534.1364,W,1,05,2.1,2401.0,M,,,,0000*2F
$GPRMC,035544.000,A,4020.4265,N,10534.1364,W,,,171015,,,A*7C
$GPGGA,040045.089,4020.4646,N,10534.1647,W,1,04,1.4,2356.0,M,,,,0000*2B
$GPRMC,040045.089,A,4020.4646,N,10534.1647,W,,,171015,,,A*7A
$GPGGA,040544.193,4020.4618,N,10534.1604,W,1,03,1.4,2384.0,M,,,,0000*21
$GPRMC,040544.193,A,4020.4618,N,10534.1604,W,,,171015,,,A*78
$GPGGA,041143.218,4020.4503,N,10534.1425,W,1,03,3.8,2384.0,M,,,,0000*25
$GPRMC,041143.218,A,4020.4503,N,10534.1425,W,,,171015,,,A*72
$GPGGA,041643.243,4020.4541,N,10534.1601,W,1,03,1.5,2384.0,M,,,,0000*21
$GPRMC,041643.243,A,4020.4541,N,10534.1601,W,,,171015,,,A*79
$GPGGA,042533.283,4020.4485,N,10534.1727,W,1,03,1.9,2384.0,M,,,,0000*2A
$GPRMC,042533.283,A,4020.4485,N,10534.1727,W,,,171015,,,A*7E
$GPGGA,043349.307,4020.6255,N,10533.9799,W,1,03,1.8,543.0,M,,,,0000*10
$GPRMC,043349.307,A,4020.6255,N,10533.9799,W,,,171015,,,A*7A
$GPGGA,043859.235,4020.5839,N,10534.0384,W,1,03,1.7,543.0,M,,,,0000*10
$GPRMC,043859.235,A,4020.5839,N,10534.0384,W,,,171015,,,A*75
$GPGGA,045200.389,4020.4806,N,10534.1503,W,1,03,1.6,543.0,M,,,,0000*12
$GPRMC,045200.389,A,4020.4806,N,10534.1503,W,,,171015,,,A*76
$GPGGA,045656.333,4020.4158,N,10534.2001,W,1,03,1.6,543.0,M,,,,0000*12
$GPRMC,045656.333,A,4020.4158,N,10534.2001,W,,,171015,,,A*76
$GPGGA,051727.527,4020.2718,N,10534.4147,W,1,03,1.8,543.0,M,,,,0000*1C
$GPRMC,051727.527,A,4020.2718,N,10534.4147,W,,,171015,,,A*76
$GPGGA,052257.455,4020.2314,N,10534.4610,W,1,03,1.9,543.0,M,,,,0000*15
$GPRMC,052257.455,A,4020.2314,N,10534.4610,W,,,171015,,,A*7E
$GPGGA,052822.483,4020.0306,N,10533.9405,W,1,03,2.0,543.0,M,,,,0000*11
$GPRMC,052822.483,A,4020.0306,N,10533.9405,W,,,171015,,,A*70
$GPGGA,053804.623,4020.3758,N,10534.2192,W,1,04,5.4,2665.0,M,,,,0000*26
$GPRMC,053804.623,A,4020.3758,N,10534.2192,W,,,171015,,,A*76
$GPGGA,054903.674,4020.4081,N,10534.1121,W,1,04,1.4,2448.0,M,,,,0000*23
$GPRMC,054903.674,A,4020.4081,N,10534.1121,W,,,171015,,,A*7A
